file_id,newspaper_name,lynch_address,date,news_address,news_location_lon,news_location_lat,newspaper_city,newspaper_state_code,year,page,url,city_lynch,state_lynch,sn,lynching.lon,lynching.lat,miles,in_state,decade,Newspaper_State,Newspaper_Region,Border,total_words,file_id_old
16742_0,Virginia Argus,"NA, NA",1/19/1805,"Richmond, Virginia",-77.43605,37.540725,Richmond,VA,1805,seq-3,https://articleextractor.org/pages/16742/vi_otters_ver02/sn84024710/1805/01/19/ed-1/seq-3/1,NA,NA,sn84024710,NA,NA,NA,N,1800,Virginia,South,Not_Border,74,16742
16744_0,Berkeley and Jefferson intelligencer,"NA, NA",2/1/1805,"Martinsburg, Virginia",-77.96389,39.45621,Martinsburg,VA,1805,seq-2,https://articleextractor.org/pages/16744/wvu_hogan_ver01/sn85059525/1805/02/01/ed-1/seq-2/2,NA,NA,sn85059525,NA,NA,NA,N,1800,Virginia,South,Not_Border,73,16744
16745_0,Lynchburg Virginian,"Niles, IL",7/23/1835,"Lynchburg , Virginia",-79.14225,37.413754,Lynchburg,VA,1835,seq-2,https://articleextractor.org/pages/16745/vi_dartmoor_ver03/sn84024649/1835/07/23/ed-1/seq-2/1,Niles,IL,sn84024649,-87.80284019999999,42.0189191,560,N,1830,Virginia,South,Not_Border,509,16745
16747_0,South Branch intelligencer,"Vicksburg, MS",8/1/1835,"Romney, West Virginia",-78.75668,39.342043,Romney,WV,1835,seq-2,https://articleextractor.org/pages/16747/wvu_queen_ver01/sn84026826/1835/08/01/ed-1/seq-2/1,Vicksburg,MS,sn84026826,-90.877882,32.3526456,833,N,1830,West Virginia,South,Border,426,16747
16757_0,Richmond enquirer,"NA, KY",9/29/1835,"Richmond, Virginia",-77.43605,37.540725,Richmond,VA,1835,seq-4,https://articleextractor.org/pages/16757/vi_armani_ver02/sn84024735/1835/09/29/ed-1/seq-4/1,NA,KY,sn84024735,106.1500072,22.726562,8275,N,1830,Virginia,South,Not_Border,385,16757
16756_0,South Branch intelligencer,"Vicksburg, MS",9/12/1835,"Romney, West Virginia",-78.75668,39.342043,Romney,WV,1835,seq-2,https://articleextractor.org/pages/16756/wvu_queen_ver01/sn84026826/1835/09/12/ed-1/seq-2/2,Vicksburg,MS,sn84026826,-90.877882,32.3526456,833,N,1830,West Virginia,South,Border,258,16756
16746_0,The Arkansas advocate,"Madison County, MS",7/31/1835,"Little Rock, Arkansas",-92.28802,34.744462,Little Rock,AR,1835,seq-2,https://articleextractor.org/pages/16746/arhi_elvis_ver01/sn87062070/1835/07/31/ed-1/seq-2/1,Madison County,MS,sn87062070,-90.0373201,32.6729459,193,N,1830,Arkansas,South,Not_Border,182,16746
16751_0,South Branch intelligencer,"Charleston, SC",9/5/1835,"Romney, West Virginia",-78.75668,39.342043,Romney,WV,1835,seq-3,https://articleextractor.org/pages/16751/wvu_queen_ver01/sn84026826/1835/09/05/ed-1/seq-3/3,Charleston,SC,sn84026826,-79.93105120000001,32.7764749,459,N,1830,West Virginia,South,Border,177,16751
16751,South Branch intelligencer,"Clinton, LA",9/5/1835,"Romney, West Virginia",-78.75668,39.342043,Romney,WV,1835,seq-3,https://articleextractor.org/pages/16751/wvu_queen_ver01/sn84026826/1835/09/05/ed-1/seq-3/3,Clinton,LA,sn84026826,-91.0156594,30.8657362,907,N,1830,West Virginia,South,Border,NA,NA
16753_0,Richmond enquirer,"Maysville, NA",9/8/1835,"Richmond, Virginia",-77.43605,37.540725,Richmond,VA,1835,seq-4,https://articleextractor.org/pages/16753/vi_naturals_ver01/sn84024735/1835/09/08/ed-1/seq-4/4,Maysville,NA,sn84024735,-83.744365,38.6411854,352,N,1830,Virginia,South,Not_Border,156,16753
16753,Richmond enquirer,"Lexington, VA",9/8/1835,"Richmond, Virginia",-77.43605,37.540725,Richmond,VA,1835,seq-4,https://articleextractor.org/pages/16753/vi_naturals_ver01/sn84024735/1835/09/08/ed-1/seq-4/4,Lexington,VA,sn84024735,-79.4428157,37.78402080000001,111,Y,1830,Virginia,South,Not_Border,NA,NA
16748_0,South Branch intelligencer,"Vicksburgh, MS",9/5/1835,"Romney, West Virginia",-78.75668,39.342043,Romney,WV,1835,seq-2,https://articleextractor.org/pages/16748/wvu_queen_ver01/sn84026826/1835/09/05/ed-1/seq-2/1,Vicksburgh,MS,sn84026826,-90.877882,32.3526456,833,N,1830,West Virginia,South,Border,63,16748
16748,South Branch intelligencer,"St. Helena parish, LA",9/5/1835,"Romney, West Virginia",-78.75668,39.342043,Romney,WV,1835,seq-2,https://articleextractor.org/pages/16748/wvu_queen_ver01/sn84026826/1835/09/05/ed-1/seq-2/1,St. Helena parish,LA,sn84026826,-90.6773046,30.8021866,895,N,1830,West Virginia,South,Border,NA,NA
14213_0,Constantine republican,"Chillicothe, OH",11/9/1836,"Constantine, Michigan",-85.6686,41.84116,Constantine,MI,1836,seq-1,https://articleextractor.org/pages/14213/mimtptc_alpena_ver01/sn83016620/1836/11/09/ed-1/seq-1/1,Chillicothe,OH,sn83016620,-82.9824019,39.3331197,224,N,1830,Michigan,Midwest,Not_Border,307,14213
14792_0,South Branch intelligencer,"NA, NA",8/13/1836,"Romney, West Virginia",-78.75668,39.342043,Romney,WV,1836,seq-1,https://articleextractor.org/pages/14792/wvu_queen_ver01/sn84026826/1836/08/13/ed-1/seq-1/1,NA,NA,sn84026826,NA,NA,NA,N,1830,West Virginia,South,Border,44,14792
14214_0,Litchfield enquirer,"Warren, KY",12/21/1837,"Litchfield, Connecticut",-73.18872,41.747264,Litchfield,CT,1837,seq-2,https://articleextractor.org/pages/14214/ct_barnum_ver01/sn84020071/1837/12/21/ed-1/seq-2/1,Warren,KY,sn84020071,-86.49965460000001,36.9886043,783,N,1830,Connecticut,Northeast,Not_Border,110,14214
16771_0,Vermont telegraph,"NA, NA",8/9/1837,"Brandon , Vermont",-73.08761,43.798119,Brandon,VT,1837,seq-2,https://articleextractor.org/pages/16771/vtu_kirby_ver02/sn83025661/1837/08/09/ed-1/seq-2/1,NA,NA,sn83025661,NA,NA,NA,N,1830,Vermont,Northeast,Not_Border,76,16771
16774_0,NA,"Hagerstown, MD",6/20/1839,"NA, West Virginia",-80.4549,38.597626,NA,WV,1839,seq-3,https://articleextractor.org/pages/16774/wvu_jacob_ver01/sn84026784/1839/06/20/ed-1/seq-3/1,Hagerstown,MD,sn84026784,-77.71999319999999,39.6417629,164,N,1830,West Virginia,South,Border,276,16774
16772_0,Burlington free press,"Natchitoches, NA",4/12/1839,"Burlington, Vermont",-73.21207,44.475882,Burlington,VT,1839,seq-2,https://articleextractor.org/pages/16772/vtu_adamant_ver01/sn84023127/1839/04/12/ed-1/seq-2/1,Natchitoches,NA,sn84023127,-93.0862749,31.7607195,1387,N,1830,Vermont,Northeast,Not_Border,230,16772
16773_0,True American,"Benton, LA",6/7/1839,"New Orleans , Louisiana",-90.07153,29.951066,New Orleans,LA,1839,seq-2,https://articleextractor.org/pages/16773/lu_sands_ver01/sn83016527/1839/06/07/ed-1/seq-2/1,Benton,LA,sn83016527,-93.7418454,32.6948677,288,Y,1830,Louisiana,South,Not_Border,49,16773
16791_0,The North-Carolina standard,"Phillips County, AR",9/1/1841,"Raleigh, North Carolina",-78.63818,35.77959,Raleigh,NC,1841,seq-4,https://articleextractor.org/pages/16791/ncu_alligator_ver01/sn85042147/1841/09/01/ed-1/seq-4/1,Phillips County,AR,sn85042147,-90.867513400000007,34.4611206,697,N,1840,North Carolina,South,Not_Border,497,16791
16791,The North-Carolina standard,"Coahoma County, MS",9/1/1841,"Raleigh, North Carolina",-78.63818,35.77959,Raleigh,NC,1841,seq-4,https://articleextractor.org/pages/16791/ncu_alligator_ver01/sn85042147/1841/09/01/ed-1/seq-4/1,Coahoma County,MS,sn85042147,-90.6393702,34.1960298,688,N,1840,North Carolina,South,Not_Border,NA,NA
16793_0,Southport telegraph,"Ogle County, IL",7/20/1841,"Southport, Wisconsin",-87.82118,42.584742,Southport,WI,1841,seq-2,https://articleextractor.org/pages/16793/whi_dynamite_ver01/sn85040303/1841/07/20/ed-1/seq-2/1,Ogle County,IL,sn85040303,-89.3226954,41.9969811,87,N,1840,Wisconsin,Midwest,Not_Border,493,16793
16793,Southport telegraph,"Chickok, AR",7/20/1841,"Southport, Wisconsin",-87.82118,42.584742,Southport,WI,1841,seq-2,https://articleextractor.org/pages/16793/whi_dynamite_ver01/sn85040303/1841/07/20/ed-1/seq-2/1,Chickok,AR,sn85040303,-91.8318334,35.20105,554,N,1840,Wisconsin,Midwest,Not_Border,NA,NA
16808_0,Southport telegraph,"Jefferson County, TX",12/28/1841,"Southport, Wisconsin",-87.82118,42.584742,Southport,WI,1841,seq-1,https://articleextractor.org/pages/16808/whi_dynamite_ver01/sn85040303/1841/12/28/ed-1/seq-1/1,Jefferson County,TX,sn85040303,-94.1513764,29.8165398,951,N,1840,Wisconsin,Midwest,Not_Border,407,16808
16795_0,Wheeling times and advertiser,"NA, NA",7/31/1841,"Wheeling, West Virginia",-80.72092,40.063962,Wheeling,WV,1841,seq-2,https://articleextractor.org/pages/16795/wvu_dawson_ver01/sn84038585/1841/07/31/ed-1/seq-2/1,NA,NA,sn84038585,NA,NA,NA,N,1840,West Virginia,South,Border,388,16795
16790_0,NA,"Rock River, IL",7/22/1841,"NA, West Virginia",-80.4549,38.597626,NA,WV,1841,seq-1,https://articleextractor.org/pages/16790/wvu_jacob_ver01/sn84026784/1841/07/22/ed-1/seq-1/1,Rock River,IL,sn84026784,-89.80004704115271,42.14995153957507,550,N,1840,West Virginia,South,Border,363,16790
16804_0,The North-Carolina standard,"St. Louis, MO",9/15/1841,"Raleigh, North Carolina",-78.63818,35.77959,Raleigh,NC,1841,seq-2,https://articleextractor.org/pages/16804/ncu_alligator_ver01/sn85042147/1841/09/15/ed-1/seq-2/1,St. Louis,MO,sn85042147,-90.1994042,38.6270025,666,N,1840,North Carolina,South,Not_Border,328,16804
16792_0,Southport telegraph,"NA, NA",7/27/1841,"Southport, Wisconsin",-87.82118,42.584742,Southport,WI,1841,seq-2,https://articleextractor.org/pages/16792/whi_dynamite_ver01/sn85040303/1841/07/27/ed-1/seq-2/1,NA,NA,sn85040303,NA,NA,NA,N,1840,Wisconsin,Midwest,Not_Border,208,16792
16806_0,NA,"Henderson County, IL",9/2/1841,"NA, West Virginia",-80.4549,38.597626,NA,WV,1841,seq-1,https://articleextractor.org/pages/16806/wvu_jacob_ver01/sn84026784/1841/09/02/ed-1/seq-1/1,Henderson County,IL,sn84026784,-90.9438468,40.83355479999999,579,N,1840,West Virginia,South,Border,169,16806
16794_0,NA,"Grant County, OH",7/30/1841,"NA, Mississippi",-89.39853,32.354668,NA,MS,1841,seq-2,https://articleextractor.org/pages/16794/msar_goldenharvest_ver01/sn87065204/1841/07/30/ed-1/seq-2/1,Grant County,OH,sn87065204,-82.90712300000001,40.4172871,664,N,1840,Mississippi,South,Not_Border,161,16794
16801_0,Southern Argus,"Philips County, AR",10/5/1841,"Columbus, Mississippi",-88.42726,33.495674,Columbus,MS,1841,seq-1,https://articleextractor.org/pages/16801/msar_kingsombra_ver01/sn83016884/1841/10/05/ed-1/seq-1/1,Philips County,AR,sn83016884,-90.867513400000007,34.4611206,155,N,1840,Mississippi,South,Not_Border,145,16801
16822_0,The Ohio Democrat,"Williamstown, KY",7/29/1841,"Canal Dover, Ohio",-81.47401,40.52062,Canal Dover,OH,1841,seq-2,https://articleextractor.org/pages/16822/ohi_cousteau_ver02/sn84028889/1841/07/29/ed-1/seq-2/1,Williamstown,KY,sn84028889,-84.5604977,38.638124500000004,210,N,1840,Ohio,Midwest,Not_Border,132,16822
16802_0,Bloomington herald,"Cincinnati, OH",9/24/1841,"Bloomington, Iowa",-93.58744,42.056097,Bloomington,IA,1841,seq-2,https://articleextractor.org/pages/16802/iahi_bellsprout_ver01/sn85050801/1841/09/24/ed-1/seq-2/1,Cincinnati,OH,sn85050801,-84.5120196,39.1031182,518,N,1840,Iowa,Midwest,Not_Border,122,16802
16803_0,The Mississippi Creole,"NA, NA",9/18/1841,"Canton, Mississippi",-90.03675,32.612638,Canton,MS,1841,seq-3,https://articleextractor.org/pages/16803/msar_eiffel_ver02/sn83016872/1841/09/18/ed-1/seq-3/1,NA,NA,sn83016872,NA,NA,NA,N,1840,Mississippi,South,Not_Border,69,16803
16811_0,The New York herald,"New Orleans, LA",5/30/1842,"New York , New York",-74.00597,40.712775,New York,NY,1842,seq-2,https://articleextractor.org/pages/16811/dlc_kudzu_ver01/sn83030313/1842/05/30/ed-1/seq-2/1,New Orleans,LA,sn83030313,-90.0715323,29.95106579999999,1170,N,1840,New York,Northeast,Not_Border,191,16811
16810_0,Southport telegraph,"San Felipe, TX",7/20/1842,"Southport, Wisconsin",-87.82118,42.584742,Southport,WI,1842,seq-1,https://articleextractor.org/pages/16810/whi_dynamite_ver01/sn85040303/1842/07/20/ed-1/seq-1/1,San Felipe,TX,sn85040303,-96.1010358,29.793166,997,N,1840,Wisconsin,Midwest,Not_Border,179,16810
16807_0,Democratic standard,"Cincinnati, OH",1/18/1842,"Georgetown, Ohio",-83.90409,38.864514,Georgetown,OH,1842,seq-2,https://articleextractor.org/pages/16807/ohi_gann_ver01/sn83035312/1842/01/18/ed-1/seq-2/1,Cincinnati,OH,sn83035312,-84.5120196,39.1031182,37,Y,1840,Ohio,Midwest,Not_Border,107,16807
16812_0,The Ohio Democrat,"not specified, TN",10/27/1842,"Canal Dover, Ohio",-81.47401,40.52062,Canal Dover,OH,1842,seq-2,https://articleextractor.org/pages/16812/ohi_cousteau_ver02/sn84028889/1842/10/27/ed-1/seq-2/1,not specified,TN,sn84028889,-86.5804473,35.5174913,444,N,1840,Ohio,Midwest,Not_Border,95,16812
16813_1,Vermont telegraph,"Hancock, NH",1/26/1842,"Brandon , Vermont",-73.08761,43.798119,Brandon,VT,1842,seq-3,https://articleextractor.org/pages/16813/vtu_kirby_ver02/sn83025661/1842/01/26/ed-1/seq-3/1,Hancock,NH,sn83025661,-71.9798565,42.9732129,80,N,1840,Vermont,Northeast,Not_Border,94,16813
16813,Vermont telegraph,"Annapolis, MD",1/26/1842,"Brandon , Vermont",-73.08761,43.798119,Brandon,VT,1842,seq-3,https://articleextractor.org/pages/16813/vtu_kirby_ver02/sn83025661/1842/01/26/ed-1/seq-3/1,Annapolis,MD,sn83025661,-76.4921829,38.9784453,377,N,1840,Vermont,Northeast,Not_Border,NA,NA
16814_0,The New York herald,"NA, NA",2/27/1843,"New York , New York",-74.00597,40.712775,New York,NY,1843,seq-2,https://articleextractor.org/pages/16814/dlc_kudzu_ver01/sn83030313/1843/02/27/ed-1/seq-2/1,NA,NA,sn83030313,NA,NA,NA,N,1840,New York,Northeast,Not_Border,246,16814
16816_0,Grant County herald,"NA, NA",4/1/1843,"Lancaster, Wisconsin",-90.71068,42.84749,Lancaster,WI,1843,seq-2,https://articleextractor.org/pages/16816/whi_idlewild_ver01/sn87082160/1843/04/01/ed-1/seq-2/1,NA,NA,sn87082160,NA,NA,NA,N,1840,Wisconsin,Midwest,Not_Border,212,16816
16815_0,The New York herald,"NA, NA",3/10/1843,"New York , New York",-74.00597,40.712775,New York,NY,1843,seq-2,https://articleextractor.org/pages/16815/dlc_kudzu_ver01/sn83030313/1843/03/10/ed-1/seq-2/1,NA,NA,sn83030313,NA,NA,NA,N,1840,New York,Northeast,Not_Border,199,16815
16817_0,The New York herald,"NA, NA",3/1/1843,"New York , New York",-74.00597,40.712775,New York,NY,1843,seq-2,https://articleextractor.org/pages/16817/dlc_kudzu_ver01/sn83030313/1843/03/01/ed-1/seq-2/1,NA,NA,sn83030313,NA,NA,NA,N,1840,New York,Northeast,Not_Border,113,16817
13752_0,The New York herald,"Covington, LA",5/14/1843,"New York , New York",-74.00597,40.712775,New York,NY,1843,seq-2,https://articleextractor.org/pages/13752/dlc_kudzu_ver01/sn83030313/1843/05/14/ed-1/seq-2/1,Covington,LA,sn83030313,-90.1009108,30.4754702,1146,N,1840,New York,Northeast,Not_Border,69,13752
16835_0,Richmond palladium,"Jefferson County, IA",6/28/1844,"Richmond, Indiana",-84.89024,39.828937,Richmond,IN,1844,seq-1,https://articleextractor.org/pages/16835/in_indianapolisolympians_ver02/sn86058217/1844/06/28/ed-1/seq-1/1,Jefferson County,IA,sn86058217,-91.9099238,41.0236358,379,N,1840,Indiana,Midwest,Not_Border,455,16835
16837_0,Boon's Lick times,"NA, AR",7/20/1844,"Fayette, Missouri",-92.68379,39.145865,Fayette,MO,1844,seq-2,https://articleextractor.org/pages/16837/mohi_henri_ver01/sn83016957/1844/07/20/ed-1/seq-2/1,NA,AR,sn83016957,NA,NA,NA,N,1840,Missouri,Midwest,Border,362,16837
16777_0,Litchfield enquirer,"NA, AR",8/8/1844,"Litchfield, Connecticut",-73.18872,41.747264,Litchfield,CT,1844,seq-3,https://articleextractor.org/pages/16777/ct_barnum_ver01/sn84020071/1844/08/08/ed-1/seq-3/1,NA,AR,sn84020071,NA,NA,NA,N,1840,Connecticut,Northeast,Not_Border,306,16777
16879_0,Martinsburg gazette,"Georgetown, OH",12/26/1844,"Martinsburg, West Virginia",-77.96389,39.45621,Martinsburg,WV,1844,seq-2,https://articleextractor.org/pages/16879/wvu_boros_ver02/sn84038468/1844/12/26/ed-1/seq-2/1,Georgetown,OH,sn84038468,-83.90409439999999,38.8645138,321,N,1840,West Virginia,South,Border,94,16879
16820_0,The New York herald,"Nauvoo, IL",4/26/1844,"New York , New York",-74.00597,40.712775,New York,NY,1844,seq-1,https://articleextractor.org/pages/16820/dlc_kudzu_ver01/sn83030313/1844/04/26/ed-1/seq-1/1,Nauvoo,IL,sn83030313,-91.3848749,40.550042,911,N,1840,New York,Northeast,Not_Border,68,16820
16874_0,NA,"Vicksburg, MS",5/22/1845,"NA, West Virginia",-80.4549,38.597626,NA,WV,1845,seq-1,https://articleextractor.org/pages/16874/wvu_goalby_ver01/sn84026784/1845/05/22/ed-1/seq-1/1,Vicksburg,MS,sn84026784,-90.877882,32.3526456,728,N,1840,West Virginia,South,Border,386,16874
16876_0,Richmond palladium,"NA, NA",3/26/1845,"Richmond, Indiana",-84.89024,39.828937,Richmond,IN,1845,seq-1,https://articleextractor.org/pages/16876/in_indianapolisolympians_ver02/sn86058217/1845/03/26/ed-1/seq-1/1,NA,NA,sn86058217,NA,NA,NA,N,1840,Indiana,Midwest,Not_Border,59,16876
16877_0,The northern galaxy,"Louisburgh, NC",6/11/1845,"Middlebury, Vermont",-73.16734,44.015337,Middlebury,VT,1845,seq-2,https://articleextractor.org/pages/16877/vtu_hortonia_ver01/sn84023649/1845/06/11/ed-1/seq-2/1,Louisburgh,NC,sn84023649,-78.30110599999999,36.0990393,611,N,1840,Vermont,Northeast,Not_Border,51,16877
16894_0,The New era,"Evansville, IN",9/24/1846,", Virginia",-78.65689,37.431573,NA,VA,1846,seq-3,https://articleextractor.org/pages/16894/vi_naturals_ver01/sn86071753/1846/09/24/ed-1/seq-3/1,Evansville,IN,sn86071753,-87.5710898,37.9715592,489,N,1840,Virginia,South,Not_Border,178,16894
18202_0,Indiana State sentinel,"Evansville, IA",9/24/1846,"Indianapolis), Indiana",-86.15807,39.768403,Indianapolis),IN,1846,seq-2,https://articleextractor.org/pages/18202/in_hoosier_ver01/sn82015677/1846/09/24/ed-1/seq-2/2,Evansville,IA,sn82015677,-87.5710898,37.9715592,146,N,1840,Indiana,Midwest,Not_Border,173,18202
16890_0,American Republican and Baltimore daily clipper,"Columbia (Chicot County), AR",7/30/1846,"Baltimore, Maryland",-76.61219,39.290385,Baltimore,MD,1846,seq-2,https://articleextractor.org/pages/16890/mdu_jalapeno_ver02/sn83009567/1846/07/30/ed-1/seq-2/1,Columbia (Chicot County),AR,sn83009567,-91.2891036,33.3419551,914,N,1840,Maryland,South,Border,117,16890
16889_0,American Republican and Baltimore daily clipper,"Peoria, IL",5/20/1846,"Baltimore, Maryland",-76.61219,39.290385,Baltimore,MD,1846,seq-2,https://articleextractor.org/pages/16889/mdu_jalapeno_ver02/sn83009567/1846/05/20/ed-1/seq-2/1,Peoria,IL,sn83009567,-89.5889864,40.6936488,694,N,1840,Maryland,South,Border,84,16889
16839_0,American Republican and Baltimore daily clipper,"Nashville, TN",3/25/1846,"Baltimore, Maryland",-76.61219,39.290385,Baltimore,MD,1846,seq-1,https://articleextractor.org/pages/16839/mdu_jalapeno_ver02/sn83009567/1846/03/25/ed-1/seq-1/1,Nashville,TN,sn83009567,-86.7816016,36.1626638,597,N,1840,Maryland,South,Border,80,16839
14033_0,Richmond daily Whig,"Jefferson County, FL",5/21/1846,"Richmond, Virginia",-77.43605,37.540725,Richmond,VA,1846,seq-2,https://articleextractor.org/pages/14033/vi_appaloosa_ver01/sn84024656/1846/05/21/ed-1/seq-2/1,Jefferson County,FL,sn84024656,-83.8897057,30.4311978,615,N,1840,Virginia,South,Not_Border,25,14033
16840_0,Ypsilanti sentinel,"San Augustine, TX",6/30/1847,"Ypsilanti, Michigan",-83.61299,42.24115,Ypsilanti,MI,1847,seq-1,https://articleextractor.org/pages/16840/mimtptc_alpena_ver01/sn85026593/1847/06/30/ed-1/seq-1/1,San Augustine,TX,sn85026593,-94.1119678,31.5296413,940,N,1840,Michigan,Midwest,Not_Border,1219,16840
16898_0,NA,"Montrose, IA",10/15/1847,"NA, Wisconsin",-88.78787,43.78444,NA,WI,1847,seq-2,https://articleextractor.org/pages/16898/whi_inez_ver01/sn86086768/1847/10/15/ed-1/seq-2/1,Montrose,IA,sn86086768,-91.414876,40.5322644,262,N,1840,Wisconsin,Midwest,Not_Border,268,16898
16897_0,Vermont watchman and State journal,"Gochland County, VA",6/10/1847,"Montpelier, Vermont",-72.57539,44.260059,Montpelier,VT,1847,seq-3,https://articleextractor.org/pages/16897/vtu_foxville_ver01/sn84023200/1847/06/10/ed-1/seq-3/1,Gochland County,VA,sn84023200,-77.973865,37.74159969999999,531,N,1840,Vermont,Northeast,Not_Border,97,16897
16843_0,The daily crescent,"NA, NA",4/28/1848,", Louisiana",-91.52086,30.519078,NA,LA,1848,seq-2,https://articleextractor.org/pages/16843/lu_diglett_ver01/sn82015378/1848/04/28/ed-1/seq-2/1,NA,NA,sn82015378,NA,NA,NA,N,1840,Louisiana,South,Not_Border,281,16843
16842_0,The daily crescent,"Centreville, MD",4/19/1848,", Louisiana",-91.52086,30.519078,NA,LA,1848,seq-3,https://articleextractor.org/pages/16842/lu_diglett_ver01/sn82015378/1848/04/19/ed-1/seq-3/1,Centreville,MD,sn82015378,-76.06633339999999,39.0417785,1055,N,1840,Louisiana,South,Not_Border,230,16842
16903_0,The daily crescent,"Vicksburg, MS",6/10/1848,", Louisiana",-91.52086,30.519078,NA,LA,1848,seq-1,https://articleextractor.org/pages/16903/lu_diglett_ver01/sn82015378/1848/06/10/ed-1/seq-1/1,Vicksburg,MS,sn82015378,-90.877882,32.3526456,132,N,1840,Louisiana,South,Not_Border,164,16903
16844_0,Burlington free press,"Washington, DC",4/28/1848,"Burlington, Vermont",-73.21207,44.475882,Burlington,VT,1848,seq-2,https://articleextractor.org/pages/16844/vtu_adamant_ver01/sn84023127/1848/04/28/ed-1/seq-2/1,Washington,DC,sn84023127,-77.0368707,38.9071923,433,N,1840,Vermont,Northeast,Not_Border,96,16844
16841_0,Green-Mountain freeman,"Opelousas, LA",4/27/1848,"Montpelier, Vermont",-72.57539,44.260059,Montpelier,VT,1848,seq-3,https://articleextractor.org/pages/16841/vtu_hildene_ver01/sn84023209/1848/04/27/ed-1/seq-3/1,Opelousas,LA,sn84023209,-92.081509,30.5335302,1425,N,1840,Vermont,Northeast,Not_Border,72,16841
13753_0,The New York herald,"NA, NA",7/9/1848,"New York , New York",-74.00597,40.712775,New York,NY,1848,seq-2,https://articleextractor.org/pages/13753/dlc_marcus_ver01/sn83030313/1848/07/09/ed-1/seq-2/1,NA,NA,sn83030313,NA,NA,NA,N,1840,New York,Northeast,Not_Border,62,13753
16924_0,The Kalida venture,"Cincinatti, OH",9/5/1848,"Kalida, Ohio",-84.19939,40.982829,Kalida,OH,1848,seq-2,https://articleextractor.org/pages/16924/ohi_fu_ver01/sn85038078/1848/09/05/ed-1/seq-2/1,Cincinatti,OH,sn85038078,-84.5120196,39.1031182,131,Y,1840,Ohio,Midwest,Not_Border,61,16924
8720_0,The spirit of democracy,"no city listed, MO",12/29/1849,"Woodsfield, Ohio",-81.11538,39.762573,Woodsfield,OH,1849,seq-1,https://articleextractor.org/pages/8720/ohi_byrd_ver01/sn85038115/1849/12/29/ed-1/seq-1/1,no city listed,MO,sn85038115,-91.8318334,37.9642529,590,N,1840,Ohio,Midwest,Not_Border,1637,8720
16939_0,The daily crescent,"Brownsville, TX",8/7/1849,", Louisiana",-91.52086,30.519078,NA,LA,1849,seq-2,https://articleextractor.org/pages/16939/lu_diglett_ver01/sn82015378/1849/08/07/ed-1/seq-2/1,Brownsville,TX,sn82015378,-97.4974838,25.9017472,484,N,1840,Louisiana,South,Not_Border,262,16939
16846_0,NA,"San Francisco (Bay Area), CA",2/23/1849,"NA, Ohio",-82.90712,40.417287,NA,OH,1849,seq-2,https://articleextractor.org/pages/16846/ohi_drake_ver01/sn87070038/1849/02/23/ed-1/seq-2/1,San Francisco (Bay Area),CA,sn87070038,-122.4194155,37.7749295,2111,N,1840,Ohio,Midwest,Not_Border,257,16846
16849_0,Lynchburg Virginian,"NA, NA",2/22/1849,"Lynchburg , Virginia",-79.14225,37.413754,Lynchburg,VA,1849,seq-1,https://articleextractor.org/pages/16849/vi_dartmoor_ver03/sn84024649/1849/02/22/ed-1/seq-1/2,NA,NA,sn84024649,NA,NA,NA,N,1840,Virginia,South,Not_Border,228,16849
16848_0,The daily crescent,"NA, CA",3/12/1849,", Louisiana",-91.52086,30.519078,NA,LA,1849,seq-1,https://articleextractor.org/pages/16848/lu_diglett_ver01/sn82015378/1849/03/12/ed-1/seq-1/1,NA,CA,sn82015378,NA,NA,NA,N,1840,Louisiana,South,Not_Border,187,16848
16913_0,Southport telegraph,"San Francisco, CA",2/16/1849,"Southport, Wisconsin",-87.82118,42.584742,Southport,WI,1849,seq-2,https://articleextractor.org/pages/16913/whi_dynamite_ver01/sn85040303/1849/02/16/ed-1/seq-2/1,San Francisco,CA,sn85040303,-122.4194155,37.7749295,1845,N,1840,Wisconsin,Midwest,Not_Border,159,16913
16851_0,Wilmington journal,"NA, NA",2/23/1849,"Wilmington, North Carolina",-77.88681,34.210389,Wilmington,NC,1849,seq-4,https://articleextractor.org/pages/16851/ncu_lumber_ver01/sn84026536/1849/02/23/ed-1/seq-4/1,NA,NA,sn84026536,NA,NA,NA,N,1840,North Carolina,South,Not_Border,145,16851
16945_0,Indiana State sentinel,"Bentonsville, AR",9/27/1849,"Indianapolis), Indiana",-86.15807,39.768403,Indianapolis),IN,1849,seq-2,https://articleextractor.org/pages/16945/in_hoosier_ver01/sn82015677/1849/09/27/ed-1/seq-2/1,Bentonsville,AR,sn82015677,-94.21021410000002,36.3723561,497,N,1840,Indiana,Midwest,Not_Border,83,16945
16847_0,NA,"NA, NA",3/6/1849,"NA, Iowa",-93.0977,41.878003,NA,IA,1849,seq-3,https://articleextractor.org/pages/16847/iahi_abra_ver01/sn86083352/1849/03/06/ed-1/seq-3/1,NA,NA,sn86083352,NA,NA,NA,N,1840,Iowa,Midwest,Not_Border,55,16847
16911_0,The New York herald,"San Francisco, CA",2/14/1849,"New York , New York",-74.00597,40.712775,New York,NY,1849,seq-2,https://articleextractor.org/pages/16911/dlc_kudzu_ver01/sn83030313/1849/02/14/ed-1/seq-2/1,San Francisco,CA,sn83030313,-122.4194155,37.7749295,2569,N,1840,New York,Northeast,Not_Border,55,16911
16937_0,The daily crescent,"San Francisco, CA",6/12/1849,", Louisiana",-91.52086,30.519078,NA,LA,1849,seq-2,https://articleextractor.org/pages/16937/lu_diglett_ver01/sn82015378/1849/06/12/ed-1/seq-2/1,San Francisco,CA,sn82015378,-122.4194155,37.7749295,1829,N,1840,Louisiana,South,Not_Border,39,16937
16923_0,The daily crescent,"New Orleans, LA",4/12/1849,", Louisiana",-91.52086,30.519078,NA,LA,1849,seq-3,https://articleextractor.org/pages/16923/lu_diglett_ver01/sn82015378/1849/04/12/ed-1/seq-3/1,New Orleans,LA,sn82015378,-90.0715323,29.95106579999999,95,Y,1840,Louisiana,South,Not_Border,25,16923
16850_0,Burlington hawk-eye,"NA, NA",3/1/1849,"Burlington, Iowa",-91.11289,40.807653,Burlington,IA,1849,seq-2,https://articleextractor.org/pages/16850/iahi_abra_ver01/sn82014327/1849/03/01/ed-1/seq-2/1,NA,NA,sn82014327,NA,NA,NA,N,1840,Iowa,Midwest,Not_Border,15,16850
16955_0,Sunday dispatch,"Culpepper, VA",7/28/1850,"New York , New York",-74.00597,40.712775,New York,NY,1850,seq-1,https://articleextractor.org/pages/16955/dlc_angelou_ver01/sn83030362/1850/07/28/ed-1/seq-1/1,Culpepper,VA,sn83030362,-77.9961177,38.4733465,263,N,1850,New York,Northeast,Not_Border,1610,16955
16953_0,Sunday dispatch,"unclear, CA",7/14/1850,"New York , New York",-74.00597,40.712775,New York,NY,1850,seq-1,https://articleextractor.org/pages/16953/dlc_angelou_ver01/sn83030362/1850/07/14/ed-1/seq-1/1,unclear,CA,sn83030362,-119.4179324,36.778261,2438,N,1850,New York,Northeast,Not_Border,556,16953
16963_0,Fremont weekly freeman,"Georgetown, CA",12/7/1850,"Fremont, Ohio",-83.12186,41.35033,Fremont,OH,1850,seq-2,https://articleextractor.org/pages/16963/ohi_ingstad_ver01/sn85026051/1850/12/07/ed-1/seq-2/1,Georgetown,CA,sn85026051,-120.8385462,38.9068445,1986,N,1850,Ohio,Midwest,Not_Border,173,16963
16963,Fremont weekly freeman,"Eutaw, AL",12/7/1850,"Fremont, Ohio",-83.12186,41.35033,Fremont,OH,1850,seq-2,https://articleextractor.org/pages/16963/ohi_ingstad_ver01/sn85026051/1850/12/07/ed-1/seq-2/1,Eutaw,AL,sn85026051,-87.8875145,32.8406848,644,N,1850,Ohio,Midwest,Not_Border,NA,NA
13735_0,The mountain sentinel,"Culpeper, VA",8/1/1850,"Ebensburg, Pennsylvania",-78.72474,40.485072,Ebensburg,PA,1850,seq-3,https://articleextractor.org/pages/13735/pst_kern_ver01/sn86071377/1850/08/01/ed-1/seq-3/1,Culpeper,VA,sn86071377,-77.9961177,38.4733465,144,N,1850,Pennsylvania,Northeast,Not_Border,169,13735
14216_0,Eastern times,"Culpepper, VA",8/1/1850,"Bath, Maine",-69.8206,43.910635,Bath,ME,1850,seq-3,https://articleextractor.org/pages/14216/me_calais_ver02/sn82014356/1850/08/01/ed-1/seq-3/1,Culpepper,VA,sn82014356,-77.9961177,38.4733465,567,N,1850,Maine,Northeast,Not_Border,161,14216
17040_0,Republican vindicator,"Poway, CA",9/2/1850,"Staunton, Virginia",-79.0717,38.149576,Staunton,VA,1850,seq-2,https://articleextractor.org/pages/17040/vi_klepper_ver02/sn84024652/1850/09/02/ed-1/seq-2/1,Poway,CA,sn84024652,-117.0358646,32.9628232,2151,N,1850,Virginia,South,Not_Border,147,17040
16957_0,The Minnesota pioneer,"Culpepper County, VA",8/1/1850,"St. Paul, Minnesota",-93.08996,44.953703,St. Paul,MN,1850,seq-3,https://articleextractor.org/pages/16957/mnhi_foxtrot_ver01/sn83025241/1850/08/01/ed-1/seq-3/1,Culpepper County,VA,sn83025241,-77.973865,38.491821,897,N,1850,Minnesota,Midwest,Not_Border,101,16957
16952_0,Kenosha telegraph,"LaGrange, TX",6/7/1850,"Kenosha, Wisconsin",-87.82118,42.584742,Kenosha,WI,1850,seq-1,https://articleextractor.org/pages/16952/whi_dynamite_ver01/sn85040305/1850/06/07/ed-1/seq-1/1,LaGrange,TX,sn85040305,-96.876647,29.9055033,1011,N,1850,Wisconsin,Midwest,Not_Border,86,16952
14217_0,The Portsmouth inquirer,"Clinton, IA",11/11/1850,"Portsmouth, Ohio",-82.99767,38.731743,Portsmouth,OH,1850,seq-3,https://articleextractor.org/pages/14217/ohi_drake_ver01/sn85026203/1850/11/11/ed-1/seq-3/1,Clinton,IA,sn85026203,-90.1887379,41.8444735,436,N,1850,Ohio,Midwest,Not_Border,85,14217
14218_0,Democratic banner.,"Phillips County, AR",1/14/1850,"Bowling Green, Missouri",-91.19514,39.341989,Bowling Green,MO,1850,seq-2,https://articleextractor.org/pages/14218/mohi_jerome_ver01/sn89066057/1850/01/14/ed-1/seq-2/1,Phillips County,AR,sn89066057,-90.867513400000007,34.4611206,338,N,1850,Missouri,Midwest,Border,74,14218
16964_0,The daily crescent,"Peoria, IL",2/6/1851,", Louisiana",-91.52086,30.519078,NA,LA,1851,seq-1,https://articleextractor.org/pages/16964/lu_diglett_ver01/sn82015378/1851/02/06/ed-1/seq-1/1,Peoria,IL,sn82015378,-89.5889864,40.6936488,712,N,1850,Louisiana,South,Not_Border,990,16964
16965_0,The Texas Republican,"Peoria, IL",2/8/1851,"Marshall, Texas",-94.36742,32.544871,Marshall,TX,1851,seq-2,https://articleextractor.org/pages/16965/txdn_eastland_ver01/sn83025730/1851/02/08/ed-1/seq-2/1,Peoria,IL,sn83025730,-89.5889864,40.6936488,623,N,1850,Texas,South,Not_Border,985,16965
16975,Richmond daily times,"San Francisco, CA",4/12/1851,"Richmond , Virginia",-77.43605,37.540725,Richmond,VA,1851,seq-1,https://articleextractor.org/pages/16975/vi_icelandic_ver01/sn84024692/1851/04/12/ed-1/seq-1/1,San Francisco,CA,sn84024692,-122.4194155,37.7749295,2439,N,1850,Virginia,South,Not_Border,NA,NA
16975_0,Richmond daily times,"Sacramento, CA",4/12/1851,"Richmond , Virginia",-77.43605,37.540725,Richmond,VA,1851,seq-1,https://articleextractor.org/pages/16975/vi_icelandic_ver01/sn84024692/1851/04/12/ed-1/seq-1/1,Sacramento,CA,sn84024692,-121.4943996,38.5815719,2377,N,1850,Virginia,South,Not_Border,873,16975
17462_0,Gallipolis journal,"NA, NA",5/15/1851,"Gallipolis, Ohio",-82.20237,38.809803,Gallipolis,OH,1851,seq-2,https://articleextractor.org/pages/17462/ohi_edgar_ver01/sn85038121/1851/05/15/ed-1/seq-2/1,NA,NA,sn85038121,NA,NA,NA,N,1850,Ohio,Midwest,Not_Border,851,17462
16971_0,The spirit of democracy,"Sacramento, CA",3/12/1851,"Woodsfield, Ohio",-81.11538,39.762573,Woodsfield,OH,1851,seq-1,https://articleextractor.org/pages/16971/ohi_byrd_ver01/sn85038115/1851/03/12/ed-1/seq-1/1,Sacramento,CA,sn85038115,-121.4943996,38.5815719,2148,N,1850,Ohio,Midwest,Not_Border,702,16971
17370_0,The daily crescent,"NA, NA",6/13/1851,", Louisiana",-91.52086,30.519078,NA,LA,1851,seq-2,https://articleextractor.org/pages/17370/lu_diglett_ver01/sn82015378/1851/06/13/ed-1/seq-2/1,NA,NA,sn82015378,NA,NA,NA,N,1850,Louisiana,South,Not_Border,617,17370
17061_0,Richmond daily times,"Cincinatti, OH",7/21/1851,"Richmond , Virginia",-77.43605,37.540725,Richmond,VA,1851,seq-1,https://articleextractor.org/pages/17061/vi_icelandic_ver01/sn84024692/1851/07/21/ed-1/seq-1/1,Cincinatti,OH,sn84024692,-84.5120196,39.1031182,399,N,1850,Virginia,South,Not_Border,524,17061
17337_0,Richmond daily times,"NA, NA",9/25/1851,"Richmond , Virginia",-77.43605,37.540725,Richmond,VA,1851,seq-2,https://articleextractor.org/pages/17337/vi_icelandic_ver01/sn84024692/1851/09/25/ed-1/seq-2/1,NA,NA,sn84024692,NA,NA,NA,N,1850,Virginia,South,Not_Border,500,17337
17372_0,Richmond daily times,"El Paso, TX",6/12/1851,"Richmond , Virginia",-77.43605,37.540725,Richmond,VA,1851,seq-2,https://articleextractor.org/pages/17372/vi_icelandic_ver01/sn84024692/1851/06/12/ed-1/seq-2/1,El Paso,TX,sn84024692,-106.4850217,31.7618778,1693,N,1850,Virginia,South,Not_Border,437,17372
17342_0,The Minnesota pioneer,"NA, NA",7/10/1851,"St. Paul, Minnesota",-93.08996,44.953703,St. Paul,MN,1851,seq-1,https://articleextractor.org/pages/17342/mnhi_foxtrot_ver01/sn83025241/1851/07/10/ed-1/seq-1/1,NA,NA,sn83025241,NA,NA,NA,N,1850,Minnesota,Midwest,Not_Border,412,17342
16973,The New York herald,"Sacramento, CA",4/10/1851,"New York , New York",-74.00597,40.712775,New York,NY,1851,seq-4,https://articleextractor.org/pages/16973/dlc_laceflower_ver01/sn83030313/1851/04/10/ed-1/seq-4/1,Sacramento,CA,sn83030313,-121.4943996,38.5815719,2503,N,1850,New York,Northeast,Not_Border,NA,NA
16973_0,The New York herald,"Stockton, CA",4/10/1851,"New York , New York",-74.00597,40.712775,New York,NY,1851,seq-4,https://articleextractor.org/pages/16973/dlc_laceflower_ver01/sn83030313/1851/04/10/ed-1/seq-4/1,Stockton,CA,sn83030313,-121.2907796,37.9577016,2506,N,1850,New York,Northeast,Not_Border,400,16973
17365_0,The Portsmouth inquirer,"El Paso, TX",6/23/1851,"Portsmouth, Ohio",-82.99767,38.731743,Portsmouth,OH,1851,seq-3,https://articleextractor.org/pages/17365/ohi_drake_ver01/sn85026203/1851/06/23/ed-1/seq-3/1,El Paso,TX,sn85026203,-106.4850217,31.7618778,1407,N,1850,Ohio,Midwest,Not_Border,319,17365
16978_0,NA,"Sacramento, CA",4/23/1851,"NA, Indiana",-85.82413,38.285625,NA,IN,1851,seq-2,https://articleextractor.org/pages/16978/in_fairmount_ver02/sn87056240/1851/04/23/ed-1/seq-2/1,Sacramento,CA,sn87056240,-121.4943996,38.5815719,1921,N,1850,Indiana,Midwest,Not_Border,311,16978
17060_0,The Athens post,"Batesville, AR",7/18/1851,"Athens, Tennessee",-84.59299,35.442851,Athens,TN,1851,seq-2,https://articleextractor.org/pages/17060/tu_nancy_ver01/sn84024443/1851/07/18/ed-1/seq-2/1,Batesville,AR,sn84024443,-91.6409431,35.7696862,397,N,1850,Tennessee,South,Not_Border,310,17060
17073_1,North Carolina standard,"Columbus, GA",8/20/1851,"Raleigh, North Carolina",-78.63818,35.77959,Raleigh,NC,1851,seq-3,https://articleextractor.org/pages/17073/ncu_broad_ver01/sn84024517/1851/08/20/ed-1/seq-3/1,Columbus,GA,sn84024517,-84.9877094,32.4609764,430,N,1850,North Carolina,South,Not_Border,113,17073
17073_0,North Carolina standard,"San Fracisco, CA",8/20/1851,"Raleigh, North Carolina",-78.63818,35.77959,Raleigh,NC,1851,seq-3,https://articleextractor.org/pages/17073/ncu_broad_ver01/sn84024517/1851/08/20/ed-1/seq-3/1,San Fracisco,CA,sn84024517,-122.4194155,37.7749295,2407,N,1850,North Carolina,South,Not_Border,302,17073
17057_0,Richmond daily times,"Santa Clara, TX",7/12/1851,"Richmond , Virginia",-77.43605,37.540725,Richmond,VA,1851,seq-2,https://articleextractor.org/pages/17057/vi_icelandic_ver01/sn84024692/1851/07/12/ed-1/seq-2/1,Santa Clara,TX,sn84024692,-98.1660074,29.5755755,1312,N,1850,Virginia,South,Not_Border,287,17057
17329_0,Grand River times,"NA, NA",12/23/1851,"Grand Haven, Michigan",-86.22839,43.063073,Grand Haven,MI,1851,seq-2,https://articleextractor.org/pages/17329/mimtptc_alpena_ver01/sn85026466/1851/12/23/ed-1/seq-2/1,NA,NA,sn85026466,NA,NA,NA,N,1850,Michigan,Midwest,Not_Border,235,17329
17332_0,Gallipolis journal,"NA, NA",10/30/1851,"Gallipolis, Ohio",-82.20237,38.809803,Gallipolis,OH,1851,seq-3,https://articleextractor.org/pages/17332/ohi_edgar_ver01/sn85038121/1851/10/30/ed-1/seq-3/1,NA,NA,sn85038121,NA,NA,NA,N,1850,Ohio,Midwest,Not_Border,219,17332
17331_0,The Hillsdale standard,"NA, NA",11/4/1851,"Hillsdale, Michigan",-84.63051,41.920047,Hillsdale,MI,1851,seq-1,https://articleextractor.org/pages/17331/mimtptc_beulah_ver01/sn85033637/1851/11/04/ed-1/seq-1/1,NA,NA,sn85033637,NA,NA,NA,N,1850,Michigan,Midwest,Not_Border,189,17331
17371_0,Vermont watchman and State journal,"Placer County, CA",6/12/1851,"Montpelier, Vermont",-72.57539,44.260059,Montpelier,VT,1851,seq-1,https://articleextractor.org/pages/17371/vtu_foxville_ver01/sn84023200/1851/06/12/ed-1/seq-1/1,Placer County,CA,sn84023200,-120.8039474,39.0915751,2481,N,1850,Vermont,Northeast,Not_Border,178,17371
17371_1,Vermont watchman and State journal,"San Joaquin County, CA",6/12/1851,"Montpelier, Vermont",-72.57539,44.260059,Montpelier,VT,1851,seq-1,https://articleextractor.org/pages/17371/vtu_foxville_ver01/sn84023200/1851/06/12/ed-1/seq-1/1,San Joaquin County,CA,sn84023200,-121.1710389,37.9175935,2533,N,1850,Vermont,Northeast,Not_Border,143,17371
16979_0,The spirit of democracy,"San Francisco, CA",4/23/1851,"Woodsfield, Ohio",-81.11538,39.762573,Woodsfield,OH,1851,seq-3,https://articleextractor.org/pages/16979/ohi_byrd_ver01/sn85038115/1851/04/23/ed-1/seq-3/1,San Francisco,CA,sn85038115,-122.4194155,37.7749295,2212,N,1850,Ohio,Midwest,Not_Border,172,16979
17336_0,Wilmington journal,"NA, NA",9/26/1851,"Wilmington, North Carolina",-77.88681,34.210389,Wilmington,NC,1851,seq-1,https://articleextractor.org/pages/17336/ncu_lumber_ver01/sn84026536/1851/09/26/ed-1/seq-1/1,NA,NA,sn84026536,NA,NA,NA,N,1850,North Carolina,South,Not_Border,161,17336
17463_0,Richmond daily times,"NA, NA",5/20/1851,"Richmond , Virginia",-77.43605,37.540725,Richmond,VA,1851,seq-2,https://articleextractor.org/pages/17463/vi_icelandic_ver01/sn84024692/1851/05/20/ed-1/seq-2/1,NA,NA,sn84024692,NA,NA,NA,N,1850,Virginia,South,Not_Border,129,17463
14022_0,Tarboro' press,"Columbus, GA",9/6/1851,"Tarborough, North Carolina",-77.5358,35.896824,Tarborough,NC,1851,seq-1,https://articleextractor.org/pages/14022/ncu_dan_ver01/sn85042204/1851/09/06/ed-1/seq-1/1,Columbus,GA,sn85042204,-84.9877094,32.4609764,488,N,1850,North Carolina,South,Not_Border,127,14022
14022_1,Tarboro' press,"Downieville, CA",9/6/1851,"Tarborough, North Carolina",-77.5358,35.896824,Tarborough,NC,1851,seq-1,https://articleextractor.org/pages/14022/ncu_dan_ver01/sn85042204/1851/09/06/ed-1/seq-1/1,Downieville,CA,sn85042204,-120.8276966,39.5595198,2359,N,1850,North Carolina,South,Not_Border,245,14022
17335_0,Wilmington journal,"NA, NA",9/26/1851,"Wilmington, North Carolina",-77.88681,34.210389,Wilmington,NC,1851,seq-2,https://articleextractor.org/pages/17335/ncu_lumber_ver01/sn84026536/1851/09/26/ed-1/seq-2/1,NA,NA,sn84026536,NA,NA,NA,N,1850,North Carolina,South,Not_Border,122,17335
17348_0,Weekly North Carolina standard,"NA, NA",6/25/1851,"Raleigh, North Carolina",-78.63818,35.77959,Raleigh,NC,1851,seq-1,https://articleextractor.org/pages/17348/ncu_alligator_ver01/sn84045030/1851/06/25/ed-1/seq-1/1,NA,NA,sn84045030,NA,NA,NA,N,1850,North Carolina,South,Not_Border,114,17348
17330_0,The Athens post,"NA, NA",11/21/1851,"Athens, Tennessee",-84.59299,35.442851,Athens,TN,1851,seq-2,https://articleextractor.org/pages/17330/tu_nancy_ver01/sn84024443/1851/11/21/ed-1/seq-2/1,NA,NA,sn84024443,NA,NA,NA,N,1850,Tennessee,South,Not_Border,104,17330
17366_0,Mississippi palladium,"NA, NA",6/20/1851,"Holly Springs, Mississippi",-89.44869,34.767597,Holly Springs,MS,1851,seq-2,https://articleextractor.org/pages/17366/msar_goldenharvest_ver01/sn83016883/1851/06/20/ed-1/seq-2/1,NA,NA,sn83016883,NA,NA,NA,N,1850,Mississippi,South,Not_Border,102,17366
17334_0,Tarboro' press,"Grayson, VA",10/11/1851,"Tarborough, North Carolina",-77.5358,35.896824,Tarborough,NC,1851,seq-1,https://articleextractor.org/pages/17334/ncu_dan_ver01/sn85042204/1851/10/11/ed-1/seq-1/1,Grayson,VA,sn85042204,-81.20781640000001,36.6721195,212,N,1850,North Carolina,South,Not_Border,93,17334
17077_0,The Athens post,"San Francisco, CA",8/29/1851,"Athens, Tennessee",-84.59299,35.442851,Athens,TN,1851,seq-1,https://articleextractor.org/pages/17077/tu_nancy_ver01/sn84024443/1851/08/29/ed-1/seq-1/1,San Francisco,CA,sn84024443,-122.4194155,37.7749295,2092,N,1850,Tennessee,South,Not_Border,92,17077
14220_0,Lewisburg chronicle,"Milton, FL",6/25/1851,"Lewisburg, Pennsylvania",-76.88441,40.964529,Lewisburg,PA,1851,seq-4,https://articleextractor.org/pages/14220/pst_fenske_ver02/sn85055197/1851/06/25/ed-1/seq-4/1,Milton,FL,sn85055197,-87.03968809999999,30.6324149,913,N,1850,Pennsylvania,Northeast,Not_Border,89,14220
16976_1,NA,"San Francisco, CA",4/18/1851,"NA, Iowa",-93.0977,41.878003,NA,IA,1851,seq-2,https://articleextractor.org/pages/16976/iahi_bellsprout_ver01/sn86081965/1851/04/18/ed-1/seq-2/1,San Francisco,CA,sn86081965,-122.4194155,37.7749295,1575,N,1850,Iowa,Midwest,Not_Border,60,16976
16976_0,NA,"Sacramento, CA",4/18/1851,"NA, Iowa",-93.0977,41.878003,NA,IA,1851,seq-2,https://articleextractor.org/pages/16976/iahi_bellsprout_ver01/sn86081965/1851/04/18/ed-1/seq-2/1,Sacramento,CA,sn86081965,-121.4943996,38.5815719,1510,N,1850,Iowa,Midwest,Not_Border,89,16976
17058_0,The Middlebury register,"Milton, FL",7/16/1851,"Middlebury, Vermont",-73.16734,44.015337,Middlebury,VT,1851,seq-2,https://articleextractor.org/pages/17058/vtu_irasburg_ver01/sn83025667/1851/07/16/ed-1/seq-2/1,Milton,FL,sn83025667,-87.03968809999999,30.6324149,1196,N,1850,Vermont,Northeast,Not_Border,89,17058
17063_0,Richmond daily times,"Livingston County, IL",8/9/1851,"Richmond , Virginia",-77.43605,37.540725,Richmond,VA,1851,seq-2,https://articleextractor.org/pages/17063/vi_icelandic_ver01/sn84024692/1851/08/09/ed-1/seq-2/1,Livingston County,IL,sn84024692,-88.55653099999999,40.8688604,638,N,1850,Virginia,South,Not_Border,87,17063
17347_0,Fremont weekly freeman,"Milton, FL",6/28/1851,"Fremont, Ohio",-83.12186,41.35033,Fremont,OH,1851,seq-3,https://articleextractor.org/pages/17347/ohi_ingstad_ver01/sn85026051/1851/06/28/ed-1/seq-3/1,Milton,FL,sn85026051,-87.03968809999999,30.6324149,773,N,1850,Ohio,Midwest,Not_Border,83,17347
17343_0,Eastern times,"Milton, FL",7/10/1851,"Bath, Maine",-69.8206,43.910635,Bath,ME,1851,seq-2,https://articleextractor.org/pages/17343/me_calais_ver02/sn82014356/1851/07/10/ed-1/seq-2/1,Milton,FL,sn82014356,-87.03968809999999,30.6324149,1315,N,1850,Maine,Northeast,Not_Border,73,17343
17054_0,Richmond daily times,"San Joaquin, CA",6/6/1851,"Richmond , Virginia",-77.43605,37.540725,Richmond,VA,1851,seq-2,https://articleextractor.org/pages/17054/vi_icelandic_ver01/sn84024692/1851/06/06/ed-1/seq-2/1,San Joaquin,CA,sn84024692,-120.1890447,36.6066162,2340,N,1850,Virginia,South,Not_Border,68,17054
17369_0,Richmond daily times,"NA, NA",6/18/1851,"Richmond , Virginia",-77.43605,37.540725,Richmond,VA,1851,seq-3,https://articleextractor.org/pages/17369/vi_icelandic_ver01/sn84024692/1851/06/18/ed-1/seq-3/1,NA,NA,sn84024692,NA,NA,NA,N,1850,Virginia,South,Not_Border,65,17369
17544_0,The daily crescent,"NA, NA",12/5/1851,", Louisiana",-91.52086,30.519078,NA,LA,1851,seq-2,https://articleextractor.org/pages/17544/lu_diglett_ver01/sn82015378/1851/12/05/ed-1/seq-2/1,NA,NA,sn82015378,NA,NA,NA,N,1850,Louisiana,South,Not_Border,65,17544
17344_0,Richmond daily times,"Batesville, AR",7/8/1851,"Richmond , Virginia",-77.43605,37.540725,Richmond,VA,1851,seq-3,https://articleextractor.org/pages/17344/vi_icelandic_ver01/sn84024692/1851/07/08/ed-1/seq-3/1,Batesville,AR,sn84024692,-91.6409431,35.7696862,797,N,1850,Virginia,South,Not_Border,62,17344
17367_0,Richmond daily times,"NA, NA",6/19/1851,"Richmond , Virginia",-77.43605,37.540725,Richmond,VA,1851,seq-3,https://articleextractor.org/pages/17367/vi_icelandic_ver01/sn84024692/1851/06/19/ed-1/seq-3/1,NA,NA,sn84024692,NA,NA,NA,N,1850,Virginia,South,Not_Border,62,17367
17349_0,Fayetteville observer,"Milton, FL",6/24/1851,"Fayetteville, Tennessee",-86.57055,35.152027,Fayetteville,TN,1851,seq-2,https://articleextractor.org/pages/17349/tu_homer_ver01/sn85033395/1851/06/24/ed-1/seq-2/1,Milton,FL,sn85033395,-87.03968809999999,30.6324149,314,N,1850,Tennessee,South,Not_Border,58,17349
17068_0,The Portsmouth inquirer,"Melones, CA",8/18/1851,"Portsmouth, Ohio",-82.99767,38.731743,Portsmouth,OH,1851,seq-2,https://articleextractor.org/pages/17068/ohi_drake_ver01/sn85026203/1851/08/18/ed-1/seq-2/1,Melones,CA,sn85026203,-120.497063,38.0099329,2020,N,1850,Ohio,Midwest,Not_Border,49,17068
17068,The Portsmouth inquirer,"Jackson, CA",8/18/1851,"Portsmouth, Ohio",-82.99767,38.731743,Portsmouth,OH,1851,seq-2,https://articleextractor.org/pages/17068/ohi_drake_ver01/sn85026203/1851/08/18/ed-1/seq-2/1,Jackson,CA,sn85026203,-120.7741018,38.3488023,2029,N,1850,Ohio,Midwest,Not_Border,NA,NA
17068,The Portsmouth inquirer,"Marysville, CA",8/18/1851,"Portsmouth, Ohio",-82.99767,38.731743,Portsmouth,OH,1851,seq-2,https://articleextractor.org/pages/17068/ohi_drake_ver01/sn85026203/1851/08/18/ed-1/seq-2/1,Marysville,CA,sn85026203,-121.5913547,39.1457253,2061,N,1850,Ohio,Midwest,Not_Border,NA,NA
18189_0,The primitive Republican.,"San Francisco, CA",8/28/1851,"Columbus, Mississippi",-88.42726,33.495674,Columbus,MS,1851,seq-2,https://articleextractor.org/pages/18189/msar_cloudchaser_ver01/sn87065038/1851/08/28/ed-1/seq-2/2,San Francisco,CA,sn87065038,-122.4194155,37.7749295,1923,N,1850,Mississippi,South,Not_Border,42,18189
16929_0,Indiana State sentinel,"Consumnes River, CA",4/24/1851,"Indianapolis), Indiana",-86.15807,39.768403,Indianapolis),IN,1851,seq-3,https://articleextractor.org/pages/16929/in_hoosier_ver01/sn82015677/1851/04/24/ed-1/seq-3/1,Consumnes River,CA,sn82015677,-121.2911446942868,38.37396309595402,1877,N,1850,Indiana,Midwest,Not_Border,40,16929
17338_0,Green-Mountain freeman,"Downerville, CA",9/18/1851,"Montpelier, Vermont",-72.57539,44.260059,Montpelier,VT,1851,seq-3,https://articleextractor.org/pages/17338/vtu_hildene_ver01/sn84023209/1851/09/18/ed-1/seq-3/1,Downerville,CA,sn84023209,-120.8276966,39.5595198,2469,N,1850,Vermont,Northeast,Not_Border,30,17338
16974_0,The Evansville daily journal,"Sacramento, CA",4/10/1851,"Evansville, Indiana",-87.57109,37.971559,Evansville,IN,1851,seq-2,https://articleextractor.org/pages/16974/in_harrison_ver01/sn82015672/1851/04/10/ed-1/seq-2/1,Sacramento,CA,sn82015672,-121.4943996,38.5815719,1832,N,1850,Indiana,Midwest,Not_Border,27,16974
17055_0,The daily crescent,"Greensburg, LA",6/10/1851,", Louisiana",-91.52086,30.519078,NA,LA,1851,seq-2,https://articleextractor.org/pages/17055/lu_diglett_ver01/sn82015378/1851/06/10/ed-1/seq-2/1,Greensburg,LA,sn82015378,-90.6717642,30.8307379,55,Y,1850,Louisiana,South,Not_Border,18,17055
18187_0,The Yazoo Democrat.,"NA, NA",1/28/1852,"Yazoo City, Mississippi",-90.40565,32.855133,Yazoo City,MS,1852,seq-2,https://articleextractor.org/pages/18187/msar_minuette_ver01/sn87065704/1852/01/28/ed-1/seq-2/2,NA,NA,sn87065704,NA,NA,NA,N,1850,Mississippi,South,Not_Border,727,18187
17363_0,Grand River times,"NA, NA",8/4/1852,"Grand Haven, Michigan",-86.22839,43.063073,Grand Haven,MI,1852,seq-2,https://articleextractor.org/pages/17363/mimtptc_alpena_ver01/sn85026466/1852/08/04/ed-1/seq-2/1,NA,NA,sn85026466,NA,NA,NA,N,1850,Michigan,Midwest,Not_Border,539,17363
17358_0,The Santa Fe weekly gazette,"NA, NA",11/27/1852,"Santa Fe, New Mexico",-105.9378,35.686975,Santa Fe,NM,1852,seq-2,https://articleextractor.org/pages/17358/nmu_coyote_ver02/sn84022165/1852/11/27/ed-1/seq-2/1,NA,NA,sn84022165,NA,NA,NA,N,1850,New Mexico,West,Not_Border,526,17358
16995_0,Southern sentinel,"Rio Grande City, TX",5/8/1852,"Plaquemine, Louisiana",-91.23427,30.289083,Plaquemine,LA,1852,seq-2,https://articleextractor.org/pages/16995/lu_blastoise_ver01/sn88064476/1852/05/08/ed-1/seq-2/1,Rio Grande City,TX,sn88064476,-98.8203046,26.3797874,535,N,1850,Louisiana,South,Not_Border,515,16995
16997_0,The Texas Republican,"Rio Grande City, TX",5/29/1852,"Marshall, Texas",-94.36742,32.544871,Marshall,TX,1852,seq-2,https://articleextractor.org/pages/16997/txdn_eastland_ver01/sn83025730/1852/05/29/ed-1/seq-2/1,Rio Grande City,TX,sn83025730,-98.8203046,26.3797874,504,Y,1850,Texas,South,Not_Border,483,16997
16988_0,The daily dispatch,"Grenda, MS",3/15/1852,"Richmond , Virginia",-77.43605,37.540725,Richmond,VA,1852,seq-2,https://articleextractor.org/pages/16988/vi_manowar_ver01/sn84024738/1852/03/15/ed-1/seq-2/1,Grenda,MS,sn84024738,-89.8084192,33.7690049,742,N,1850,Virginia,South,Not_Border,462,16988
16988,The daily dispatch,"Hickman, MS",3/15/1852,"Richmond , Virginia",-77.43605,37.540725,Richmond,VA,1852,seq-2,https://articleextractor.org/pages/16988/vi_manowar_ver01/sn84024738/1852/03/15/ed-1/seq-2/1,Hickman,MS,sn84024738,-89.3985283,32.3546679,766,N,1850,Virginia,South,Not_Border,NA,NA
17360_0,Lynchburg daily Virginian,"San Francisco, CA",9/11/1852,"Lynchburg , Virginia",-79.14225,37.413754,Lynchburg,VA,1852,seq-1,https://articleextractor.org/pages/17360/vi_exmoor_ver01/sn85034360/1852/09/11/ed-1/seq-1/1,San Francisco,CA,sn85034360,-122.4194155,37.7749295,2350,N,1850,Virginia,South,Not_Border,404,17360
16993_0,Gallipolis journal,"Hickman, MS",3/18/1852,"Gallipolis, Ohio",-82.20237,38.809803,Gallipolis,OH,1852,seq-2,https://articleextractor.org/pages/16993/ohi_edgar_ver01/sn85038121/1852/03/18/ed-1/seq-2/1,Hickman,MS,sn85038121,-89.3985283,32.3546679,602,N,1850,Ohio,Midwest,Not_Border,390,16993
16989_0,Richmond daily times,"Grenada, MS",3/16/1852,"Richmond , Virginia",-77.43605,37.540725,Richmond,VA,1852,seq-2,https://articleextractor.org/pages/16989/vi_icelandic_ver01/sn84024692/1852/03/16/ed-1/seq-2/1,Grenada,MS,sn84024692,-89.8084192,33.7690049,742,N,1850,Virginia,South,Not_Border,346,16989
17364_0,Vermont watchman and State journal,"NA, NA",7/29/1852,"Montpelier, Vermont",-72.57539,44.260059,Montpelier,VT,1852,seq-3,https://articleextractor.org/pages/17364/vtu_foxville_ver01/sn84023200/1852/07/29/ed-1/seq-3/1,NA,NA,sn84023200,NA,NA,NA,N,1850,Vermont,Northeast,Not_Border,306,17364
16986_0,The Hillsdale standard,"Ophir, CA",2/10/1852,"Hillsdale, Michigan",-84.63051,41.920047,Hillsdale,MI,1852,seq-1,https://articleextractor.org/pages/16986/mimtptc_beulah_ver01/sn85033637/1852/02/10/ed-1/seq-1/1,Ophir,CA,sn85033637,-121.1235582,38.8910099,1919,N,1850,Michigan,Midwest,Not_Border,281,16986
16987_0,Richmond daily times,"Hickman Landing, MS",3/13/1852,"Richmond , Virginia",-77.43605,37.540725,Richmond,VA,1852,seq-2,https://articleextractor.org/pages/16987/vi_icelandic_ver01/sn84024692/1852/03/13/ed-1/seq-2/1,Hickman Landing,MS,sn84024692,-90.7791494,32.9343384,817,N,1850,Virginia,South,Not_Border,110,16987
16983_0,The Hillsdale standard,"Downeville, CA",1/27/1852,"Hillsdale, Michigan",-84.63051,41.920047,Hillsdale,MI,1852,seq-1,https://articleextractor.org/pages/16983/mimtptc_beulah_ver01/sn85033637/1852/01/27/ed-1/seq-1/1,Downeville,CA,sn85033637,-120.8276966,39.5595198,1890,N,1850,Michigan,Midwest,Not_Border,55,16983
17362_0,The daily dispatch,"San Francisco, CA",8/14/1852,"Richmond , Virginia",-77.43605,37.540725,Richmond,VA,1852,seq-2,https://articleextractor.org/pages/17362/vi_manowar_ver01/sn84024738/1852/08/14/ed-1/seq-2/2,San Francisco,CA,sn84024738,-122.4194155,37.7749295,2439,N,1850,Virginia,South,Not_Border,53,17362
16985_0,Richmond daily times,"Newark, DE",2/3/1852,"Richmond , Virginia",-77.43605,37.540725,Richmond,VA,1852,seq-3,https://articleextractor.org/pages/16985/vi_icelandic_ver01/sn84024692/1852/02/03/ed-1/seq-3/1,Newark,DE,sn84024692,-75.74965720000002,39.6837226,174,N,1850,Virginia,South,Not_Border,37,16985
17000_0,Richmond daily times,"Coloma, CA",5/19/1852,"Richmond , Virginia",-77.43605,37.540725,Richmond,VA,1852,seq-3,https://articleextractor.org/pages/17000/vi_icelandic_ver01/sn84024692/1852/05/19/ed-1/seq-3/1,Coloma,CA,sn84024692,-120.8902916,38.7999214,2342,N,1850,Virginia,South,Not_Border,28,17000
17001_0,Wilmington journal,"Coloma, CA",5/21/1852,"Wilmington, North Carolina",-77.88681,34.210389,Wilmington,NC,1852,seq-2,https://articleextractor.org/pages/17001/ncu_lumber_ver01/sn84026536/1852/05/21/ed-1/seq-2/1,Coloma,CA,sn84026536,-120.8902916,38.7999214,2390,N,1850,North Carolina,South,Not_Border,28,17001
17002_0,NA,"Colma, CA",5/27/1852,"NA, Iowa",-93.0977,41.878003,NA,IA,1852,seq-2,https://articleextractor.org/pages/17002/iahi_bellsprout_ver01/sn86081965/1852/05/27/ed-1/seq-2/1,Colma,CA,sn86081965,-122.4561533,37.6749036,1580,N,1850,Iowa,Midwest,Not_Border,28,17002
17006_0,The New York herald,"Negro Hill, CA",3/1/1853,"New York , New York",-74.00597,40.712775,New York,NY,1853,seq-2,https://articleextractor.org/pages/17006/dlc_laceflower_ver01/sn83030313/1853/03/01/ed-1/seq-2/1,Negro Hill,CA,sn83030313,-119.4179324,36.778261,2438,N,1850,New York,Northeast,Not_Border,910,17006
17025_0,The Hillsdale standard,"Columbus, OH",6/14/1853,"Hillsdale, Michigan",-84.63051,41.920047,Hillsdale,MI,1853,seq-2,https://articleextractor.org/pages/17025/mimtptc_beulah_ver01/sn85033637/1853/06/14/ed-1/seq-2/1,Columbus,OH,sn85033637,-82.99879419999999,39.9611755,160,N,1850,Michigan,Midwest,Not_Border,476,17025
17027_0,Southern sentinel,"Baton Rogue, LA",7/16/1853,"Plaquemine, Louisiana",-91.23427,30.289083,Plaquemine,LA,1853,seq-2,https://articleextractor.org/pages/17027/lu_blastoise_ver01/sn88064476/1853/07/16/ed-1/seq-2/1,Baton Rogue,LA,sn88064476,-91.1871466,30.4514677,12,Y,1850,Louisiana,South,Not_Border,303,17027
17324_0,The Santa Fe weekly gazette,"NA, NA",11/19/1853,"Santa Fe, New Mexico",-105.9378,35.686975,Santa Fe,NM,1853,seq-2,https://articleextractor.org/pages/17324/nmu_coyote_ver02/sn84022165/1853/11/19/ed-1/seq-2/1,NA,NA,sn84022165,NA,NA,NA,N,1850,New Mexico,West,Not_Border,217,17324
8477_0,Lynchburg daily Virginian,"Boon County, MO",9/8/1853,"Lynchburg , Virginia",-79.14225,37.413754,Lynchburg,VA,1853,seq-2,https://articleextractor.org/pages/8477/vi_exmoor_ver01/sn85034360/1853/09/08/ed-1/seq-2/1,Boon County,MO,sn85034360,-92.3813621,39.0468547,727,N,1850,Virginia,South,Not_Border,206,8477
17032_0,The daily dispatch,"Boon County, MO",9/6/1853,"Richmond , Virginia",-77.43605,37.540725,Richmond,VA,1853,seq-3,https://articleextractor.org/pages/17032/vi_manowar_ver01/sn84024738/1853/09/06/ed-1/seq-3/1,Boon County,MO,sn84024738,-92.3813621,39.0468547,817,N,1850,Virginia,South,Not_Border,204,17032
17011_0,The daily dispatch,"Woodstock, NH",4/5/1853,"Richmond , Virginia",-77.43605,37.540725,Richmond,VA,1853,seq-4,https://articleextractor.org/pages/17011/vi_manowar_ver01/sn84024738/1853/04/05/ed-1/seq-4/1,Woodstock,NH,sn84024738,-71.6850802,43.9775681,537,N,1850,Virginia,South,Not_Border,202,17011
17015_0,Richmond daily times,"Shasta, CA",5/23/1853,"Richmond , Virginia",-77.43605,37.540725,Richmond,VA,1853,seq-2,https://articleextractor.org/pages/17015/vi_icelandic_ver01/sn84024692/1853/05/23/ed-1/seq-2/1,Shasta,CA,sn84024692,-122.4907566,40.598119,2402,N,1850,Virginia,South,Not_Border,194,17015
17015_0,Richmond daily times,"Monterey, CA",5/23/1853,"Richmond , Virginia",-77.43605,37.540725,Richmond,VA,1853,seq-2,https://articleextractor.org/pages/17015/vi_icelandic_ver01/sn84024692/1853/05/23/ed-1/seq-2/1,Monterey,CA,sn84024692,-121.8946761,36.6002378,2431,N,1850,Virginia,South,Not_Border,194,17015
17030_0,The Evansville daily journal,"Pettis County, MO",7/29/1853,"Evansville, Indiana",-87.57109,37.971559,Evansville,IN,1853,seq-2,https://articleextractor.org/pages/17030/in_harrison_ver01/sn82015672/1853/07/29/ed-1/seq-2/1,Pettis County,MO,sn82015672,-93.3388917,38.6893153,317,N,1850,Indiana,Midwest,Not_Border,163,17030
17029_0,The daily dispatch,"Baton Rogue, LA",7/20/1853,"Richmond , Virginia",-77.43605,37.540725,Richmond,VA,1853,seq-3,https://articleextractor.org/pages/17029/vi_manowar_ver01/sn84024738/1853/07/20/ed-1/seq-3/1,Baton Rogue,LA,sn84024738,-91.1871466,30.4514677,927,N,1850,Virginia,South,Not_Border,137,17029
17325_0,Anti-slavery bugle,"Columbiana county , MO",11/5/1853,"New-Lisbon, Ohio",-80.76813,40.772004,New-Lisbon,OH,1853,seq-1,https://articleextractor.org/pages/17325/ohi_desdemona_ver01/sn83035487/1853/11/05/ed-1/seq-1/1,Columbiana county,MO,sn83035487,-91.8318334,37.9642529,622,N,1850,Ohio,Midwest,Not_Border,118,17325
17018_0,The daily dispatch,"Columbus, OH",6/1/1853,"Richmond , Virginia",-77.43605,37.540725,Richmond,VA,1853,seq-3,https://articleextractor.org/pages/17018/vi_manowar_ver01/sn84024738/1853/06/01/ed-1/seq-3/1,Columbus,OH,sn84024738,-82.99879419999999,39.9611755,344,N,1850,Virginia,South,Not_Border,104,17018
17326_0,Richmond daily Whig,"NA, NA",10/27/1853,"Richmond, Virginia",-77.43605,37.540725,Richmond,VA,1853,seq-2,https://articleextractor.org/pages/17326/vi_appaloosa_ver01/sn84024656/1853/10/27/ed-1/seq-2/1,NA,NA,sn84024656,NA,NA,NA,N,1850,Virginia,South,Not_Border,87,17326
17007_0,Portage sentinel,"Lynchburg, VA",3/2/1853,"Ravenna, Ohio",-81.24205,41.157557,Ravenna,OH,1853,seq-1,https://articleextractor.org/pages/17007/ohi_gann_ver01/sn83035101/1853/03/02/ed-1/seq-1/1,Lynchburg,VA,sn83035101,-79.14224639999999,37.4137536,282,N,1850,Ohio,Midwest,Not_Border,71,17007
17008_0,Fremont journal,"n/a, GA",3/12/1853,"Fremont, Ohio",-83.12186,41.35033,Fremont,OH,1853,seq-2,https://articleextractor.org/pages/17008/ohi_cobweb_ver04/sn85026050/1853/03/12/ed-1/seq-2/1,n/a,GA,sn85026050,-82.90712300000001,32.1574351,636,N,1850,Ohio,Midwest,Not_Border,53,17008
17005_0,The daily dispatch,"Lynchburg, VA",2/15/1853,"Richmond , Virginia",-77.43605,37.540725,Richmond,VA,1853,seq-3,https://articleextractor.org/pages/17005/vi_manowar_ver01/sn84024738/1853/02/15/ed-1/seq-3/1,Lynchburg,VA,sn84024738,-79.14224639999999,37.4137536,94,Y,1850,Virginia,South,Not_Border,44,17005
17019_0,NA,"Columbus, OH",6/2/1853,"NA, Missouri",101.75239,20.92408,NA,MO,1853,seq-1,https://articleextractor.org/pages/17019/mohi_henri_ver01/sn86063325/1853/06/02/ed-1/seq-1/1,Columbus,OH,sn86063325,-82.99879419999999,39.9611755,8228,N,1850,Missouri,Midwest,Border,44,17019
17004_0,The daily dispatch,"Santa Clara County, CA",1/28/1853,"Richmond , Virginia",-77.43605,37.540725,Richmond,VA,1853,seq-1,https://articleextractor.org/pages/17004/vi_manowar_ver01/sn84024738/1853/01/28/ed-1/seq-1/1,Santa Clara County,CA,sn84024738,-121.7195459,37.2938907,2410,N,1850,Virginia,South,Not_Border,34,17004
17110_0,The New York herald,"Mariposa, CA",6/9/1854,"New York , New York",-74.00597,40.712775,New York,NY,1854,seq-2,https://articleextractor.org/pages/17110/dlc_laceflower_ver01/sn83030313/1854/06/09/ed-1/seq-2/1,Mariposa,CA,sn83030313,-119.9662843,37.4849377,2449,N,1850,New York,Northeast,Not_Border,875,17110
17321_0,Republican vindicator,"NA, NA",1/30/1854,"Staunton, Virginia",-79.0717,38.149576,Staunton,VA,1854,seq-1,https://articleextractor.org/pages/17321/vi_klepper_ver02/sn84024652/1854/01/30/ed-1/seq-1/1,NA,NA,sn84024652,NA,NA,NA,N,1850,Virginia,South,Not_Border,768,17321
17315_0,The Middlebury register,"NA, NA",10/25/1854,"Middlebury, Vermont",-73.16734,44.015337,Middlebury,VT,1854,seq-1,https://articleextractor.org/pages/17315/vtu_irasburg_ver01/sn83025667/1854/10/25/ed-1/seq-1/1,NA,NA,sn83025667,NA,NA,NA,N,1850,Vermont,Northeast,Not_Border,605,17315
17128_0,The Cecil Whig,"Denton, MD",10/14/1854,"Elkton, Maryland",-75.83327,39.606779,Elkton,MD,1854,seq-3,https://articleextractor.org/pages/17128/mdu_fitzgerald_ver01/sn83016348/1854/10/14/ed-1/seq-3/1,Denton,MD,sn83016348,-75.8271563,38.8845582,50,Y,1850,Maryland,South,Border,583,17128
17317_0,New-York dispatch,"NA, NA",7/30/1854,"New York , New York",-74.00597,40.712775,New York,NY,1854,seq-4,https://articleextractor.org/pages/17317/dlc_dunbar_ver01/sn83030364/1854/07/30/ed-1/seq-4/1,NA,NA,sn83030364,NA,NA,NA,N,1850,New York,Northeast,Not_Border,535,17317
17125_0,New-York dispatch,"Cincinatti, OH",8/20/1854,"New York , New York",-74.00597,40.712775,New York,NY,1854,seq-4,https://articleextractor.org/pages/17125/dlc_dunbar_ver01/sn83030364/1854/08/20/ed-1/seq-4/1,Cincinatti,OH,sn83030364,-84.5120196,39.1031182,568,N,1850,New York,Northeast,Not_Border,476,17125
17125_0,New-York dispatch,"Weston, MO",8/20/1854,"New York , New York",-74.00597,40.712775,New York,NY,1854,seq-4,https://articleextractor.org/pages/17125/dlc_dunbar_ver01/sn83030364/1854/08/20/ed-1/seq-4/1,Weston,MO,sn83030364,-94.9016298,39.4111092,1107,N,1850,New York,Northeast,Not_Border,476,17125
13754_0,The Hillsdale standard,"NA, NA",3/28/1854,"Hillsdale, Michigan",-84.63051,41.920047,Hillsdale,MI,1854,seq-2,https://articleextractor.org/pages/13754/mimtptc_beulah_ver01/sn85033637/1854/03/28/ed-1/seq-2/1,NA,NA,sn85033637,NA,NA,NA,N,1850,Michigan,Midwest,Not_Border,434,13754
17311_0,Kansas weekly herald,"NA, NA",12/29/1854,"Leavenworth, Kansas",-94.92794,39.310352,Leavenworth,KS,1854,seq-2,https://articleextractor.org/pages/17311/khi_anthony_ver01/sn85029297/1854/12/29/ed-1/seq-2/1,NA,NA,sn85029297,NA,NA,NA,N,1850,Kansas,Midwest,Not_Border,388,17311
17310_0,The daily dispatch,"NA, NA",12/29/1854,"Richmond , Virginia",-77.43605,37.540725,Richmond,VA,1854,seq-1,https://articleextractor.org/pages/17310/vi_manowar_ver01/sn84024738/1854/12/29/ed-1/seq-1/1,NA,NA,sn84024738,NA,NA,NA,N,1850,Virginia,South,Not_Border,378,17310
17320_0,The Ohio star,"Natchez, MS",2/15/1854,"Ravenna, Ohio",-81.24205,41.157557,Ravenna,OH,1854,seq-3,https://articleextractor.org/pages/17320/ohi_fu_ver01/sn83035044/1854/02/15/ed-1/seq-3/1,Natchez,MS,sn83035044,-91.403171,31.5604442,871,N,1850,Ohio,Midwest,Not_Border,354,17320
17314_0,Lynchburg daily Virginian,"None, VA",12/14/1854,"Lynchburg , Virginia",-79.14225,37.413754,Lynchburg,VA,1854,seq-2,https://articleextractor.org/pages/17314/vi_exmoor_ver01/sn85034360/1854/12/14/ed-1/seq-2/2,None,VA,sn85034360,-78.6568942,37.4315734,27,Y,1850,Virginia,South,Not_Border,286,17314
17037_0,Lynchburg daily Virginian,"Bedford County, VA",8/5/1854,"Lynchburg , Virginia",-79.14225,37.413754,Lynchburg,VA,1854,seq-2,https://articleextractor.org/pages/17037/vi_exmoor_ver01/sn85034360/1854/08/05/ed-1/seq-2/1,Bedford County,VA,sn85034360,-79.4703885,37.2538794,21,Y,1850,Virginia,South,Not_Border,275,17037
17037_1,Lynchburg daily Virginian,"Danville, KY",8/5/1854,"Lynchburg , Virginia",-79.14225,37.413754,Lynchburg,VA,1854,seq-2,https://articleextractor.org/pages/17037/vi_exmoor_ver01/sn85034360/1854/08/05/ed-1/seq-2/1,Danville,KY,sn85034360,-84.77217019999999,37.6456329,309,N,1850,Virginia,South,Not_Border,496,17037
17100_0,Lynchburg daily Virginian,"n/a, WI",3/18/1854,"Lynchburg , Virginia",-79.14225,37.413754,Lynchburg,VA,1854,seq-3,https://articleextractor.org/pages/17100/vi_exmoor_ver01/sn85034360/1854/03/18/ed-1/seq-3/1,n/a,WI,sn85034360,NA,NA,NA,N,1850,Virginia,South,Not_Border,261,17100
17115_0,Shepherdstown register,"Marshall County, MS",6/24/1854,"Shepherdstown, West Virginia",-77.80416,39.4301,Shepherdstown,WV,1854,seq-2,https://articleextractor.org/pages/17115/wvu_antares_ver02/sn84026824/1854/06/24/ed-1/seq-2/1,Marshall County,MS,sn84026824,-89.4742177,34.7729491,719,N,1850,West Virginia,South,Border,245,17115
17126_0,New-York dispatch,"Georgetown, KY",9/24/1854,"New York , New York",-74.00597,40.712775,New York,NY,1854,seq-4,https://articleextractor.org/pages/17126/dlc_dunbar_ver01/sn83030364/1854/09/24/ed-1/seq-4/1,Georgetown,KY,sn83030364,-84.55883109999999,38.2097967,589,N,1850,New York,Northeast,Not_Border,237,17126
17039_0,The daily dispatch,"Bedford County, VA",8/7/1854,"Richmond , Virginia",-77.43605,37.540725,Richmond,VA,1854,seq-2,https://articleextractor.org/pages/17039/vi_manowar_ver01/sn84024738/1854/08/07/ed-1/seq-2/2,Bedford County,VA,sn84024738,-79.4703885,37.2538794,114,Y,1850,Virginia,South,Not_Border,234,17039
17318_0,The Kalida venture,"Natchez, MS",3/3/1854,"Kalida, Ohio",-84.19939,40.982829,Kalida,OH,1854,seq-2,https://articleextractor.org/pages/17318/ohi_fu_ver01/sn85038078/1854/03/03/ed-1/seq-2/1,Natchez,MS,sn85038078,-91.403171,31.5604442,765,N,1850,Ohio,Midwest,Not_Border,233,17318
18191_0,The daily Minnesota pioneer,"Caroline County, MD",10/26/1854,"St. Paul, Minnesota",-93.08996,44.953703,St. Paul,MN,1854,seq-3,https://articleextractor.org/pages/18191/mnhi_foxtrot_ver01/sn84035804/1854/10/26/ed-1/seq-3/2,Caroline County,MD,sn84035804,-75.8533954,38.9105018,978,N,1850,Minnesota,Midwest,Not_Border,213,18191
17113_0,NA,"Chulahoma, MS",6/21/1854,"NA, Iowa",-93.0977,41.878003,NA,IA,1854,seq-2,https://articleextractor.org/pages/17113/iahi_abra_ver01/sn86083363/1854/06/21/ed-1/seq-2/1,Chulahoma,MS,sn86083363,-89.6303614,34.6537116,534,N,1850,Iowa,Midwest,Not_Border,183,17113
17312_0,The daily dispatch,"None, VA",12/15/1854,"Richmond , Virginia",-77.43605,37.540725,Richmond,VA,1854,seq-1,https://articleextractor.org/pages/17312/vi_manowar_ver01/sn84024738/1854/12/15/ed-1/seq-1/1,None,VA,sn84024738,-78.6568942,37.4315734,67,Y,1850,Virginia,South,Not_Border,152,17312
16763_0,The true Democrat,"Saline County, AR",10/25/1854,"Little Rock, Arkansas",-92.28802,34.744462,Little Rock,AR,1854,seq-2,https://articleextractor.org/pages/16763/arhi_charmander_ver01/sn84022882/1854/10/25/ed-1/seq-2/1,Saline County,AR,sn84022882,-92.539603,34.5708215,19,Y,1850,Arkansas,South,Not_Border,142,16763
17120_0,The Athens post,"Laredo, TX",7/28/1854,"Athens, Tennessee",-84.59299,35.442851,Athens,TN,1854,seq-2,https://articleextractor.org/pages/17120/tu_nancy_ver01/sn84024443/1854/07/28/ed-1/seq-2/1,Laredo,TX,sn84024443,-99.5075519,27.5035613,1035,N,1850,Tennessee,South,Not_Border,133,17120
17109_0,The daily dispatch,"NA, NY",6/8/1854,"Richmond , Virginia",-77.43605,37.540725,Richmond,VA,1854,seq-1,https://articleextractor.org/pages/17109/vi_manowar_ver01/sn84024738/1854/06/08/ed-1/seq-1/1,NA,NY,sn84024738,-74.0084676,40.7328659,287,N,1850,Virginia,South,Not_Border,116,17109
16765_0,The true Democrat,"Monterey, CA",10/25/1854,"Little Rock, Arkansas",-92.28802,34.744462,Little Rock,AR,1854,seq-3,https://articleextractor.org/pages/16765/arhi_charmander_ver01/sn84022882/1854/10/25/ed-1/seq-3/1,Monterey,CA,sn84022882,-121.8946761,36.6002378,1662,N,1850,Arkansas,South,Not_Border,102,16765
17104_0,Sunday dispatch,"St. Louis, MO",4/23/1854,"New York , New York",-74.00597,40.712775,New York,NY,1854,seq-4,https://articleextractor.org/pages/17104/dlc_dunbar_ver01/sn83030362/1854/04/23/ed-1/seq-4/1,St. Louis,MO,sn83030362,-90.1994042,38.6270025,873,N,1850,New York,Northeast,Not_Border,94,17104
18190_0,New Orleans daily crescent,"NA, NA",8/19/1854,", Louisiana",-91.52086,30.519078,NA,LA,1854,seq-2,https://articleextractor.org/pages/18190/lu_pearse_ver01/sn82015753/1854/08/19/ed-1/seq-2/1,NA,NA,sn82015753,NA,NA,NA,N,1850,Louisiana,South,Not_Border,74,18190
17137_0,Smyrna times,"Denton, MD",10/25/1854,"Smyrna, Delaware",-75.60465,39.299834,Smyrna,DE,1854,seq-2,https://articleextractor.org/pages/17137/deu_artemis_ver02/sn84020422/1854/10/25/ed-1/seq-2/1,Denton,MD,sn84020422,-75.8271563,38.8845582,31,N,1850,Delaware,South,Border,73,17137
17124_0,Richmond daily Whig,"Buffalo, NY",8/14/1854,"Richmond, Virginia",-77.43605,37.540725,Richmond,VA,1854,seq-3,https://articleextractor.org/pages/17124/vi_appaloosa_ver01/sn84024656/1854/08/14/ed-1/seq-3/1,Buffalo,NY,sn84024656,-78.8783689,42.88644679999999,378,N,1850,Virginia,South,Not_Border,70,17124
8440_0,Edgefield advertiser,"Denton, MD",10/26/1854,"Edgefield, South Carolina",-81.92956,33.789577,Edgefield,SC,1854,seq-1,https://articleextractor.org/pages/8440/scu_cootiestark_ver01/sn84026897/1854/10/26/ed-1/seq-1/1,Denton,MD,sn84026897,-75.8271563,38.8845582,489,N,1850,South Carolina,South,Not_Border,69,8440
18194_0,Richmond enquirer,"NA, NA",1/24/1854,"Richmond, Virginia",-77.43605,37.540725,Richmond,VA,1854,seq-4,https://articleextractor.org/pages/18194/vi_chanel_ver01/sn84024735/1854/01/24/ed-1/seq-4/1,NA,NA,sn84024735,NA,NA,NA,N,1850,Virginia,South,Not_Border,64,18194
17117_0,Lynchburg daily Virginian,"Hornitas, CA",7/13/1854,"Lynchburg , Virginia",-79.14225,37.413754,Lynchburg,VA,1854,seq-3,https://articleextractor.org/pages/17117/vi_exmoor_ver01/sn85034360/1854/07/13/ed-1/seq-3/1,Hornitas,CA,sn85034360,-120.238241,37.5021592,2238,N,1850,Virginia,South,Not_Border,37,17117
17106_0,Sunday dispatch,"Gloucester, MA",5/14/1854,"New York , New York",-74.00597,40.712775,New York,NY,1854,seq-3,https://articleextractor.org/pages/17106/dlc_dunbar_ver01/sn83030362/1854/05/14/ed-1/seq-3/1,Gloucester,MA,sn83030362,-70.6619888,42.6159285,217,N,1850,New York,Northeast,Not_Border,35,17106
16740_0,Burlington free press,"NA, CA",1/20/1854,"Burlington, Vermont",-73.21207,44.475882,Burlington,VT,1854,seq-4,https://articleextractor.org/pages/16740/vtu_adamant_ver01/sn84023127/1854/01/20/ed-1/seq-4/1,NA,CA,sn84023127,NA,NA,NA,N,1850,Vermont,Northeast,Not_Border,34,16740
17122_0,The Hillsborough recorder,"Laredo, TX",8/2/1854,"Hillsborough, North Carolina",-79.09973,36.075418,Hillsborough,NC,1854,seq-3,https://articleextractor.org/pages/17122/ncu_hawk_ver02/sn84026472/1854/08/02/ed-1/seq-3/1,Laredo,TX,sn84026472,-99.5075519,27.5035613,1335,N,1850,North Carolina,South,Not_Border,34,17122
17175_0,Anti-slavery bugle,"NA, NA",9/8/1855,"New-Lisbon, Ohio",-80.76813,40.772004,New-Lisbon,OH,1855,seq-2,https://articleextractor.org/pages/17175/ohi_ariel_ver02/sn83035487/1855/09/08/ed-1/seq-2/1,NA,NA,sn83035487,NA,NA,NA,N,1850,Ohio,Midwest,Not_Border,1268,17175
17298_0,Western Reserve chronicle,"NA, NA",5/9/1855,"Warren, Ohio",-80.81842,41.237557,Warren,OH,1855,seq-2,https://articleextractor.org/pages/17298/ohi_ariel_ver02/sn84028385/1855/05/09/ed-1/seq-2/1,NA,NA,sn84028385,NA,NA,NA,N,1850,Ohio,Midwest,Not_Border,1027,17298
17197_0,The Union and eastern journal,"NA, NA",11/9/1855,"Biddeford , Maine",-70.45338,43.492584,Biddeford,ME,1855,seq-2,https://articleextractor.org/pages/17197/me_allagash_ver02/sn83021380/1855/11/09/ed-1/seq-2/1,NA,NA,sn83021380,NA,NA,NA,N,1850,Maine,Northeast,Not_Border,790,17197
17198_0,The weekly Portage sentinel,"Columbia, CA",11/17/1855,"Ravenna, Ohio",-81.24205,41.157557,Ravenna,OH,1855,seq-2,https://articleextractor.org/pages/17198/ohi_gann_ver01/sn83035102/1855/11/17/ed-1/seq-2/1,Columbia,CA,sn83035102,-120.4013061,38.0363119,2081,N,1850,Ohio,Midwest,Not_Border,529,17198
17181_0,Green-Mountain freeman,"NA, NA",9/20/1855,"Montpelier, Vermont",-72.57539,44.260059,Montpelier,VT,1855,seq-2,https://articleextractor.org/pages/17181/vtu_hildene_ver01/sn84023209/1855/09/20/ed-1/seq-2/1,NA,NA,sn84023209,NA,NA,NA,N,1850,Vermont,Northeast,Not_Border,476,17181
17171_0,Tribune and telegraph,"West Bend, WI",8/16/1855,"Kenosha, Wisconsin",-87.82118,42.584742,Kenosha,WI,1855,seq-2,https://articleextractor.org/pages/17171/whi_dynamite_ver01/sn85040307/1855/08/16/ed-1/seq-2/1,West Bend,WI,sn85040307,-88.1834277,43.4252776,61,Y,1850,Wisconsin,Midwest,Not_Border,418,17171
17151_0,Semi-weekly standard,"Gaston, AL",6/27/1855,"Raleigh, North Carolina",-78.63818,35.77959,Raleigh,NC,1855,seq-2,https://articleextractor.org/pages/17151/ncu_broad_ver01/sn83045450/1855/06/27/ed-1/seq-2/1,Gaston,AL,sn83045450,-88.2236365,32.3509735,598,N,1850,North Carolina,South,Not_Border,411,17151
17303_0,Squatter sovereign,"NA, NA",4/24/1855,"Atchison, Kansas",-95.12164,39.563052,Atchison,KS,1855,seq-2,https://articleextractor.org/pages/17303/khi_anthony_ver01/sn82015827/1855/04/24/ed-1/seq-2/1,NA,NA,sn82015827,NA,NA,NA,N,1850,Kansas,Midwest,Not_Border,398,17303
17201_0,The Opelousas courier,"NA, NA",12/1/1855,"Opelousas, Louisiana",-92.08151,30.53353,Opelousas,LA,1855,seq-2,https://articleextractor.org/pages/17201/lu_lenin_ver01/sn83026389/1855/12/01/ed-2/seq-2/1,NA,NA,sn83026389,NA,NA,NA,N,1850,Louisiana,South,Not_Border,381,17201
17164_0,Western Reserve chronicle,"Tensas Parish, LA",9/12/1855,"Warren, Ohio",-80.81842,41.237557,Warren,OH,1855,seq-1,https://articleextractor.org/pages/17164/ohi_ariel_ver02/sn84028385/1855/09/12/ed-1/seq-1/1,Tensas Parish,LA,sn84028385,-91.2891036,32.077218,858,N,1850,Ohio,Midwest,Not_Border,290,17164
17161_0,Tribune and telegraph,"Janesville, WI",8/2/1855,"Kenosha, Wisconsin",-87.82118,42.584742,Kenosha,WI,1855,seq-2,https://articleextractor.org/pages/17161/whi_dynamite_ver01/sn85040307/1855/08/02/ed-1/seq-2/1,Janesville,WI,sn85040307,-89.0187222,42.6827885,61,Y,1850,Wisconsin,Midwest,Not_Border,273,17161
17352_0,The daily dispatch,"Weston, MO",5/29/1855,"Richmond , Virginia",-77.43605,37.540725,Richmond,VA,1855,seq-3,https://articleextractor.org/pages/17352/vi_manowar_ver01/sn84024738/1855/05/29/ed-1/seq-3/1,Weston,MO,sn84024738,-94.9016298,39.4111092,953,N,1850,Virginia,South,Not_Border,255,17352
17306_0,New-York dispatch,"Oakland, CA",3/4/1855,"New York , New York",-74.00597,40.712775,New York,NY,1855,seq-7,https://articleextractor.org/pages/17306/dlc_barnes_ver02/sn83030364/1855/03/04/ed-1/seq-7/2,Oakland,CA,sn83030364,-122.2711639,37.8043514,2560,N,1850,New York,Northeast,Not_Border,211,17306
17306_0,New-York dispatch,"NA, NA",3/4/1855,"New York , New York",-74.00597,40.712775,New York,NY,1855,seq-7,https://articleextractor.org/pages/17306/dlc_barnes_ver02/sn83030364/1855/03/04/ed-1/seq-7/2,NA,NA,sn83030364,NA,NA,NA,N,1850,New York,Northeast,Not_Border,211,17306
17306_1,New-York dispatch,"Bestville, CA",3/4/1855,"New York , New York",-74.00597,40.712775,New York,NY,1855,seq-7,https://articleextractor.org/pages/17306/dlc_barnes_ver02/sn83030364/1855/03/04/ed-1/seq-7/2,Bestville,CA,sn83030364,-123.14194,41.30083,2530,N,1850,New York,Northeast,Not_Border,126,17306
18192_0,Lynchburg daily Virginian,"La Grange, TN",10/8/1855,"Lynchburg , Virginia",-79.14225,37.413754,Lynchburg,VA,1855,seq-1,https://articleextractor.org/pages/18192/vi_exmoor_ver01/sn85034360/1855/10/08/ed-1/seq-1/2,La Grange,TN,sn85034360,-89.2436803,35.0453673,587,N,1850,Virginia,South,Not_Border,194,18192
18192_1,Lynchburg daily Virginian,"De Witt County, TX",10/8/1855,"Lynchburg , Virginia",-79.14225,37.413754,Lynchburg,VA,1855,seq-1,https://articleextractor.org/pages/18192/vi_exmoor_ver01/sn85034360/1855/10/08/ed-1/seq-1/2,De Witt County,TX,sn85034360,-97.3516558,29.1235194,1196,N,1850,Virginia,South,Not_Border,122,18192
17196_0,Fremont journal,"NA, NA",11/2/1855,"Fremont, Ohio",-83.12186,41.35033,Fremont,OH,1855,seq-2,https://articleextractor.org/pages/17196/ohi_cobweb_ver04/sn85026050/1855/11/02/ed-1/seq-2/1,NA,NA,sn85026050,NA,NA,NA,N,1850,Ohio,Midwest,Not_Border,173,17196
17351_0,Mineral Point tribune,"San Diego County, CA",5/30/1855,"Mineral Point, Wisconsin",-90.17985,42.859997,Mineral Point,WI,1855,seq-2,https://articleextractor.org/pages/17351/whi_inez_ver01/sn85033189/1855/05/30/ed-1/seq-2/1,San Diego County,CA,sn85033189,-116.6081653,33.0933809,1583,N,1850,Wisconsin,Midwest,Not_Border,150,17351
13755_0,The Hillsdale standard,"Washington county, WI",8/14/1855,"Hillsdale, Michigan",-84.63051,41.920047,Hillsdale,MI,1855,seq-2,https://articleextractor.org/pages/13755/mimtptc_beulah_ver01/sn85033637/1855/08/14/ed-1/seq-2/1,Washington county,WI,sn85033637,-88.24611829999999,43.3932586,210,N,1850,Michigan,Midwest,Not_Border,135,13755
17180_0,Minnesota weekly times,"NA, NA",9/18/1855,"St. Paul, Minnesota",-93.08996,44.953703,St. Paul,MN,1855,seq-2,https://articleextractor.org/pages/17180/mnhi_foxtrot_ver01/sn85025594/1855/09/18/ed-1/seq-2/1,NA,NA,sn85025594,NA,NA,NA,N,1850,Minnesota,Midwest,Not_Border,116,17180
8446_0,The daily dispatch,"DeWitt County, TX",10/5/1855,"Richmond , Virginia",-77.43605,37.540725,Richmond,VA,1855,seq-1,https://articleextractor.org/pages/8446/vi_manowar_ver01/sn84024738/1855/10/05/ed-1/seq-1/1,DeWitt County,TX,sn84024738,-97.3516558,29.1235194,1286,N,1850,Virginia,South,Not_Border,113,8446
17168_0,Lynchburg daily Virginian,"Milwaukee, WI",8/10/1855,"Lynchburg , Virginia",-79.14225,37.413754,Lynchburg,VA,1855,seq-3,https://articleextractor.org/pages/17168/vi_exmoor_ver01/sn85034360/1855/08/10/ed-1/seq-3/1,Milwaukee,WI,sn85034360,-87.9064736,43.0389025,604,N,1850,Virginia,South,Not_Border,100,17168
17353_0,Burlington tri-weekly hawk-eye,"Ithaca, NY",5/28/1855,"Burlington , Iowa",-91.11289,40.807653,Burlington,IA,1855,seq-2,https://articleextractor.org/pages/17353/iahi_abra_ver01/sn85049817/1855/05/28/ed-1/seq-2/1,Ithaca,NY,sn85049817,-76.5018807,42.4439614,763,N,1850,Iowa,Midwest,Not_Border,96,17353
17301_0,The daily dispatch,"New Orleans, LA",5/1/1855,"Richmond , Virginia",-77.43605,37.540725,Richmond,VA,1855,seq-1,https://articleextractor.org/pages/17301/vi_manowar_ver01/sn84024738/1855/05/01/ed-1/seq-1/1,New Orleans,LA,sn84024738,-90.0715323,29.95106579999999,895,N,1850,Virginia,South,Not_Border,90,17301
17304_0,The daily dispatch,"New Orleans, LA",4/21/1855,"Richmond , Virginia",-77.43605,37.540725,Richmond,VA,1855,seq-1,https://articleextractor.org/pages/17304/vi_manowar_ver01/sn84024738/1855/04/21/ed-1/seq-1/1,New Orleans,LA,sn84024738,-90.0715323,29.95106579999999,895,N,1850,Virginia,South,Not_Border,84,17304
17355_0,The daily Minnesota pioneer,"Leavenworth City, KS",5/18/1855,"St. Paul, Minnesota",-93.08996,44.953703,St. Paul,MN,1855,seq-3,https://articleextractor.org/pages/17355/mnhi_foxtrot_ver01/sn84035804/1855/05/18/ed-1/seq-3/1,Leavenworth City,KS,sn84035804,-94.9279371,39.3103522,402,N,1850,Minnesota,Midwest,Not_Border,81,17355
16867_0,The Trinity times,"San Antonio, CA",7/7/1855,"Weaverville, California",-122.94197,40.730978,Weaverville,CA,1855,seq-2,https://articleextractor.org/pages/16867/curiv_iris_ver01/sn85025203/1855/07/07/ed-1/seq-2/2,San Antonio,CA,sn85025203,-122.59028,38.18389,177,Y,1850,California,West,Not_Border,75,16867
17178_0,The North-Carolinian,"Ranchora, CA",9/15/1855,"Fayetteville , North Carolina",-78.87838,35.052367,Fayetteville,NC,1855,seq-3,https://articleextractor.org/pages/17178/ncu_jefferson_ver02/sn84020750/1855/09/15/ed-1/seq-3/1,Ranchora,CA,sn84020750,-119.4179324,36.778261,2257,N,1850,North Carolina,South,Not_Border,68,17178
17185_0,The daily dispatch,"Lagrange, TN",10/8/1855,"Richmond , Virginia",-77.43605,37.540725,Richmond,VA,1855,seq-2,https://articleextractor.org/pages/17185/vi_manowar_ver01/sn84024738/1855/10/08/ed-1/seq-2/1,Lagrange,TN,sn84024738,-89.2436803,35.0453673,680,N,1850,Virginia,South,Not_Border,65,17185
17143_0,The Evansville daily journal,"Weston, MO",6/5/1855,"Evansville, Indiana",-87.57109,37.971559,Evansville,IN,1855,seq-2,https://articleextractor.org/pages/17143/in_harrison_ver01/sn82015672/1855/06/05/ed-1/seq-2/1,Weston,MO,sn82015672,-94.9016298,39.4111092,408,N,1850,Indiana,Midwest,Not_Border,63,17143
17192_0,Fayetteville observer,"NA, NA",10/25/1855,"Fayetteville, Tennessee",-86.57055,35.152027,Fayetteville,TN,1855,seq-1,https://articleextractor.org/pages/17192/tu_homer_ver01/sn85033395/1855/10/25/ed-1/seq-1/1,NA,NA,sn85033395,NA,NA,NA,N,1850,Tennessee,South,Not_Border,63,17192
17144_0,The daily dispatch,"Sumpter, AL",6/5/1855,"Richmond , Virginia",-77.43605,37.540725,Richmond,VA,1855,seq-1,https://articleextractor.org/pages/17144/vi_manowar_ver01/sn84024738/1855/06/05/ed-1/seq-1/1,Sumpter,AL,sn84024738,-88.24611829999999,32.6155551,700,N,1850,Virginia,South,Not_Border,61,17144
17187_0,Lynchburg daily Virginian,"Cumberland Mountains, TN",10/9/1855,"Lynchburg , Virginia",-79.14225,37.413754,Lynchburg,VA,1855,seq-3,https://articleextractor.org/pages/17187/vi_exmoor_ver01/sn85034360/1855/10/09/ed-1/seq-3/1,Cumberland Mountains,TN,sn85034360,-86.5804473,35.5174913,434,N,1850,Virginia,South,Not_Border,53,17187
17300_0,Burlington free press,"NA, NA",5/4/1855,"Burlington, Vermont",-73.21207,44.475882,Burlington,VT,1855,seq-2,https://articleextractor.org/pages/17300/vtu_adamant_ver01/sn84023127/1855/05/04/ed-1/seq-2/1,NA,NA,sn84023127,NA,NA,NA,N,1850,Vermont,Northeast,Not_Border,51,17300
17199_0,The daily dispatch,"NA, NA",11/27/1855,"Richmond , Virginia",-77.43605,37.540725,Richmond,VA,1855,seq-1,https://articleextractor.org/pages/17199/vi_manowar_ver01/sn84024738/1855/11/27/ed-1/seq-1/1,NA,NA,sn84024738,NA,NA,NA,N,1850,Virginia,South,Not_Border,44,17199
17191_0,Vermont watchman and State journal,"Chicago, IL",10/19/1855,"Montpelier, Vermont",-72.57539,44.260059,Montpelier,VT,1855,seq-3,https://articleextractor.org/pages/17191/vtu_foxville_ver01/sn84023200/1855/10/19/ed-1/seq-3/1,Chicago,IL,sn84023200,-87.6297982,41.8781136,777,N,1850,Vermont,Northeast,Not_Border,42,17191
17189_0,Richmond enquirer,"St. Louis, MO",10/16/1855,"Richmond, Virginia",-77.43605,37.540725,Richmond,VA,1855,seq-2,https://articleextractor.org/pages/17189/vi_chanel_ver01/sn84024735/1855/10/16/ed-1/seq-2/1,St. Louis,MO,sn84024735,-90.1994042,38.6270025,698,N,1850,Virginia,South,Not_Border,34,17189
17297_0,Plymouth advertiser,"NA, NA",5/11/1855,"Plymouth, Ohio",-82.66712,40.995611,Plymouth,OH,1855,seq-2,https://articleextractor.org/pages/17297/ohi_ingstad_ver01/sn86079046/1855/05/11/ed-1/seq-2/1,NA,NA,sn86079046,NA,NA,NA,N,1850,Ohio,Midwest,Not_Border,34,17297
17186_0,Squatter sovereign,"Milwaukee, WI",10/9/1855,"Atchison, Kansas",-95.12164,39.563052,Atchison,KS,1855,seq-2,https://articleextractor.org/pages/17186/khi_anthony_ver01/sn82015827/1855/10/09/ed-1/seq-2/1,Milwaukee,WI,sn82015827,-87.9064736,43.0389025,445,N,1850,Kansas,Midwest,Not_Border,31,17186
17350_0,The daily Minnesota pioneer,"Ithaca, NY",5/31/1855,"St. Paul, Minnesota",-93.08996,44.953703,St. Paul,MN,1855,seq-2,https://articleextractor.org/pages/17350/mnhi_foxtrot_ver01/sn84035804/1855/05/31/ed-1/seq-2/1,Ithaca,NY,sn84035804,-76.5018807,42.4439614,846,N,1850,Minnesota,Midwest,Not_Border,27,17350
17194_0,Western Reserve chronicle,"NA, NA",10/31/1855,"Warren, Ohio",-80.81842,41.237557,Warren,OH,1855,seq-1,https://articleextractor.org/pages/17194/ohi_ariel_ver02/sn84028385/1855/10/31/ed-1/seq-1/1,NA,NA,sn84028385,NA,NA,NA,N,1850,Ohio,Midwest,Not_Border,12,17194
17203_0,Belmont chronicle,"NA, NA",9/11/1856,"St. Clairsville, Ohio",-80.90176,40.08032,St. Clairsville,OH,1856,seq-2,https://articleextractor.org/pages/17203/ohi_feste_ver01/sn85026241/1856/09/11/ed-1/seq-2/1,NA,NA,sn85026241,NA,NA,NA,N,1850,Ohio,Midwest,Not_Border,1043,17203
17390_0,Tribune and telegraph,"Janesville, WI",3/13/1856,"Kenosha, Wisconsin",-87.82118,42.584742,Kenosha,WI,1856,seq-2,https://articleextractor.org/pages/17390/whi_dynamite_ver01/sn85040307/1856/03/13/ed-1/seq-2/1,Janesville,WI,sn85040307,-89.0187222,42.6827885,61,Y,1850,Wisconsin,Midwest,Not_Border,653,17390
17390_0,Tribune and telegraph,"Washington County, WI",3/13/1856,"Kenosha, Wisconsin",-87.82118,42.584742,Kenosha,WI,1856,seq-2,https://articleextractor.org/pages/17390/whi_dynamite_ver01/sn85040307/1856/03/13/ed-1/seq-2/1,Washington County,WI,sn85040307,-88.24611829999999,43.3932586,60,Y,1850,Wisconsin,Midwest,Not_Border,653,17390
17383_0,The daily dispatch,"NA, NA",4/17/1856,"Richmond , Virginia",-77.43605,37.540725,Richmond,VA,1856,seq-1,https://articleextractor.org/pages/17383/vi_manowar_ver01/sn84024738/1856/04/17/ed-1/seq-1/1,NA,NA,sn84024738,NA,NA,NA,N,1850,Virginia,South,Not_Border,581,17383
17406_0,Anti-slavery bugle,"NA, NA",11/29/1856,"New-Lisbon, Ohio",-80.76813,40.772004,New-Lisbon,OH,1856,seq-2,https://articleextractor.org/pages/17406/ohi_ariel_ver02/sn83035487/1856/11/29/ed-1/seq-2/1,NA,NA,sn83035487,NA,NA,NA,N,1850,Ohio,Midwest,Not_Border,576,17406
17414_0,The daily dispatch,"NA, NA",9/8/1856,"Richmond , Virginia",-77.43605,37.540725,Richmond,VA,1856,seq-2,https://articleextractor.org/pages/17414/vi_manowar_ver01/sn84024738/1856/09/08/ed-1/seq-2/1,NA,NA,sn84024738,NA,NA,NA,N,1850,Virginia,South,Not_Border,570,17414
17400_0,Richmond enquirer,"Louiseville, KY",12/30/1856,"Richmond, Virginia",-77.43605,37.540725,Richmond,VA,1856,seq-4,https://articleextractor.org/pages/17400/vi_chanel_ver01/sn84024735/1856/12/30/ed-1/seq-4/1,Louiseville,KY,sn84024735,-85.7584557,38.2526647,457,N,1850,Virginia,South,Not_Border,528,17400
17399_0,Lynchburg daily Virginian,"Louiseville, KY",12/30/1856,"Lynchburg , Virginia",-79.14225,37.413754,Lynchburg,VA,1856,seq-3,https://articleextractor.org/pages/17399/vi_exmoor_ver01/sn85034360/1856/12/30/ed-1/seq-3/1,Louiseville,KY,sn85034360,-85.7584557,38.2526647,366,N,1850,Virginia,South,Not_Border,482,17399
17391_0,Mineral Point tribune,"NA, NA",2/26/1856,"Mineral Point, Wisconsin",-90.17985,42.859997,Mineral Point,WI,1856,seq-2,https://articleextractor.org/pages/17391/whi_inez_ver01/sn85033189/1856/02/26/ed-1/seq-2/1,NA,NA,sn85033189,NA,NA,NA,N,1850,Wisconsin,Midwest,Not_Border,386,17391
17403_0,Burlington free press,"NA, NA",12/5/1856,"Burlington, Vermont",-73.21207,44.475882,Burlington,VT,1856,seq-2,https://articleextractor.org/pages/17403/vtu_adamant_ver01/sn84023127/1856/12/05/ed-1/seq-2/1,NA,NA,sn84023127,NA,NA,NA,N,1850,Vermont,Northeast,Not_Border,358,17403
17415_0,The daily dispatch,"NA, NA",9/8/1856,"Richmond , Virginia",-77.43605,37.540725,Richmond,VA,1856,seq-1,https://articleextractor.org/pages/17415/vi_manowar_ver01/sn84024738/1856/09/08/ed-1/seq-1/1,NA,NA,sn84024738,NA,NA,NA,N,1850,Virginia,South,Not_Border,354,17415
17412_0,Lynchburg daily Virginian,"San Andreas, CA",11/7/1856,"Lynchburg , Virginia",-79.14225,37.413754,Lynchburg,VA,1856,seq-2,https://articleextractor.org/pages/17412/vi_exmoor_ver01/sn85034360/1856/11/07/ed-1/seq-2/1,San Andreas,CA,sn85034360,-120.6804872,38.1960298,2251,N,1850,Virginia,South,Not_Border,271,17412
17404_0,The Tiffin tribune,"NA, NA",12/5/1856,"Tiffin, Ohio",-83.17798,41.114499,Tiffin,OH,1856,seq-2,https://articleextractor.org/pages/17404/ohi_iago_ver01/sn85026279/1856/12/05/ed-1/seq-2/1,NA,NA,sn85026279,NA,NA,NA,N,1850,Ohio,Midwest,Not_Border,240,17404
17407_0,The Opelousas patriot,"Pottawatomie Creek, KS",11/29/1856,"Opelousas, Louisiana",-92.08151,30.53353,Opelousas,LA,1856,seq-2,https://articleextractor.org/pages/17407/lu_charizard_ver01/sn86079076/1856/11/29/ed-1/seq-2/1,Pottawatomie Creek,KS,sn86079076,-95.2111146874035,38.37534221014877,571,N,1850,Louisiana,South,Not_Border,200,17407
17411_0,Richmond daily Whig,"Middlesex County, VA",11/25/1856,"Richmond, Virginia",-77.43605,37.540725,Richmond,VA,1856,seq-3,https://articleextractor.org/pages/17411/vi_balikun_ver01/sn84024656/1856/11/25/ed-1/seq-3/1,Middlesex County,VA,sn84024656,-76.5257007,37.6040106,50,Y,1850,Virginia,South,Not_Border,189,17411
17405_0,Weekly hawk-eye and telegraph,"Pottawatomie Creek, KS",12/3/1856,"Burlington, Iowa",-91.11289,40.807653,Burlington,IA,1856,seq-1,https://articleextractor.org/pages/17405/iahi_abra_ver01/sn84037930/1856/12/03/ed-1/seq-1/1,Pottawatomie Creek,KS,sn84037930,-95.2111146874035,38.37534221014877,276,N,1850,Iowa,Midwest,Not_Border,184,17405
17409_0,Staunton spectator,"Pottawatomie Creek, KS",11/26/1856,"Staunton, Virginia",-79.0717,38.149576,Staunton,VA,1856,seq-2,https://articleextractor.org/pages/17409/vi_loons_ver01/sn84024718/1856/11/26/ed-1/seq-2/1,Pottawatomie Creek,KS,sn84024718,-95.2111146874035,38.37534221014877,876,N,1850,Virginia,South,Not_Border,170,17409
17386_0,Lynchburg daily Virginian,"Lewis County, VA",3/29/1856,"Lynchburg , Virginia",-79.14225,37.413754,Lynchburg,VA,1856,seq-3,https://articleextractor.org/pages/17386/vi_exmoor_ver01/sn85034360/1856/03/29/ed-1/seq-3/1,Lewis County,VA,sn85034360,-80.54384499999999,39.0196167,135,Y,1850,Virginia,South,Not_Border,162,17386
17389_0,The daily dispatch,"Lewis County, VA",3/28/1856,"Richmond , Virginia",-77.43605,37.540725,Richmond,VA,1856,seq-1,https://articleextractor.org/pages/17389/vi_manowar_ver01/sn84024738/1856/03/28/ed-1/seq-1/2,Lewis County,VA,sn84024738,-80.54384499999999,39.0196167,197,Y,1850,Virginia,South,Not_Border,155,17389
17417_0,Mineral Point tribune,"NA, NA",8/26/1856,"Mineral Point, Wisconsin",-90.17985,42.859997,Mineral Point,WI,1856,seq-2,https://articleextractor.org/pages/17417/whi_inez_ver01/sn85033189/1856/08/26/ed-1/seq-2/1,NA,NA,sn85033189,NA,NA,NA,N,1850,Wisconsin,Midwest,Not_Border,135,17417
17408_0,The daily dispatch,"NA, NA",11/26/1856,"Richmond , Virginia",-77.43605,37.540725,Richmond,VA,1856,seq-1,https://articleextractor.org/pages/17408/vi_manowar_ver01/sn84024738/1856/11/26/ed-1/seq-1/1,NA,NA,sn84024738,NA,NA,NA,N,1850,Virginia,South,Not_Border,127,17408
17401_0,The Cadiz Democratic sentinel,"Manchester, KY",12/17/1856,"Cadiz, Ohio",-80.99676,40.272845,Cadiz,OH,1856,seq-1,https://articleextractor.org/pages/17401/ohi_julian_ver02/sn84028794/1856/12/17/ed-1/seq-1/1,Manchester,KY,sn84028794,-83.7618641,37.1537007,262,N,1850,Ohio,Midwest,Not_Border,124,17401
17208_0,The daily dispatch,"NA, NA",9/24/1856,"Richmond , Virginia",-77.43605,37.540725,Richmond,VA,1856,seq-2,https://articleextractor.org/pages/17208/vi_manowar_ver01/sn84024738/1856/09/24/ed-1/seq-2/1,NA,NA,sn84024738,NA,NA,NA,N,1850,Virginia,South,Not_Border,111,17208
17204_0,The daily dispatch,"NA, NA",9/12/1856,"Richmond , Virginia",-77.43605,37.540725,Richmond,VA,1856,seq-1,https://articleextractor.org/pages/17204/vi_manowar_ver01/sn84024738/1856/09/12/ed-1/seq-1/1,NA,NA,sn84024738,NA,NA,NA,N,1850,Virginia,South,Not_Border,107,17204
17211_0,The weekly Portage sentinel,"NA, NA",10/2/1856,"Ravenna, Ohio",-81.24205,41.157557,Ravenna,OH,1856,seq-4,https://articleextractor.org/pages/17211/ohi_gann_ver01/sn83035102/1856/10/02/ed-1/seq-4/1,NA,NA,sn83035102,NA,NA,NA,N,1850,Ohio,Midwest,Not_Border,106,17211
17202_0,The weekly Portage sentinel,"NA, NA",9/11/1856,"Ravenna, Ohio",-81.24205,41.157557,Ravenna,OH,1856,seq-4,https://articleextractor.org/pages/17202/ohi_gann_ver01/sn83035102/1856/09/11/ed-1/seq-4/1,NA,NA,sn83035102,NA,NA,NA,N,1850,Ohio,Midwest,Not_Border,104,17202
17205_0,The weekly Portage sentinel,"NA, NA",9/18/1856,"Ravenna, Ohio",-81.24205,41.157557,Ravenna,OH,1856,seq-4,https://articleextractor.org/pages/17205/ohi_gann_ver01/sn83035102/1856/09/18/ed-1/seq-4/1,NA,NA,sn83035102,NA,NA,NA,N,1850,Ohio,Midwest,Not_Border,104,17205
17416_0,The weekly Portage sentinel,"NA, KS",9/4/1856,"Ravenna, Ohio",-81.24205,41.157557,Ravenna,OH,1856,seq-4,https://articleextractor.org/pages/17416/ohi_gann_ver01/sn83035102/1856/09/04/ed-1/seq-4/1,NA,KS,sn83035102,NA,NA,NA,N,1850,Ohio,Midwest,Not_Border,103,17416
17209_0,The weekly Portage sentinel,"NA, NA",9/25/1856,"Ravenna, Ohio",-81.24205,41.157557,Ravenna,OH,1856,seq-4,https://articleextractor.org/pages/17209/ohi_gann_ver01/sn83035102/1856/09/25/ed-1/seq-4/1,NA,NA,sn83035102,NA,NA,NA,N,1850,Ohio,Midwest,Not_Border,101,17209
17420_0,The weekly Portage sentinel,"NA, KS",8/7/1856,"Ravenna, Ohio",-81.24205,41.157557,Ravenna,OH,1856,seq-4,https://articleextractor.org/pages/17420/ohi_gann_ver01/sn83035102/1856/08/07/ed-1/seq-4/1,NA,KS,sn83035102,NA,NA,NA,N,1850,Ohio,Midwest,Not_Border,99,17420
17418_0,The weekly Portage sentinel,"NA, KS",8/21/1856,"Ravenna, Ohio",-81.24205,41.157557,Ravenna,OH,1856,seq-4,https://articleextractor.org/pages/17418/ohi_gann_ver01/sn83035102/1856/08/21/ed-1/seq-4/1,NA,KS,sn83035102,NA,NA,NA,N,1850,Ohio,Midwest,Not_Border,96,17418
17421_0,The daily dispatch,"Washington County, AR",8/4/1856,"Richmond , Virginia",-77.43605,37.540725,Richmond,VA,1856,seq-1,https://articleextractor.org/pages/17421/vi_manowar_ver01/sn84024738/1856/08/04/ed-1/seq-1/1,Washington County,AR,sn84024738,-94.1513764,35.9307703,932,N,1850,Virginia,South,Not_Border,92,17421
17207_0,The daily dispatch,"NA, NA",9/18/1856,"Richmond , Virginia",-77.43605,37.540725,Richmond,VA,1856,seq-1,https://articleextractor.org/pages/17207/vi_manowar_ver01/sn84024738/1856/09/18/ed-1/seq-1/1,NA,NA,sn84024738,NA,NA,NA,N,1850,Virginia,South,Not_Border,84,17207
17212_0,Richmond daily Whig,"Wirt County, WV",10/10/1856,"Richmond, Virginia",-77.43605,37.540725,Richmond,VA,1856,seq-3,https://articleextractor.org/pages/17212/vi_balikun_ver01/sn84024656/1856/10/10/ed-1/seq-3/1,Wirt County,WV,sn84024656,-81.38393260000001,39.04360930000001,238,N,1850,Virginia,South,Not_Border,83,17212
17419_0,Burlington free press,"NA, NA",8/8/1856,"Burlington, Vermont",-73.21207,44.475882,Burlington,VT,1856,seq-1,https://articleextractor.org/pages/17419/vtu_adamant_ver01/sn84023127/1856/08/08/ed-1/seq-1/1,NA,NA,sn84023127,NA,NA,NA,N,1850,Vermont,Northeast,Not_Border,72,17419
16764_0,The true Democrat,"Pottawatomie Creek, KS",12/2/1856,"Little Rock, Arkansas",-92.28802,34.744462,Little Rock,AR,1856,seq-2,https://articleextractor.org/pages/16764/arhi_charmander_ver01/sn84022882/1856/12/02/ed-1/seq-2/1,Pottawatomie Creek,KS,sn84022882,-95.2111146874035,38.37534221014877,299,N,1850,Arkansas,South,Not_Border,59,16764
14223_0,The daily dispatch,"Marion, AR",11/13/1856,"Richmond , Virginia",-77.43605,37.540725,Richmond,VA,1856,seq-2,https://articleextractor.org/pages/14223/vi_manowar_ver01/sn84024738/1856/11/13/ed-1/seq-2/1,Marion,AR,sn84024738,-90.197219,35.2144374,728,N,1850,Virginia,South,Not_Border,55,14223
13756_0,New Orleans daily crescent,"Tuoloume county, CA",1/11/1856,", Louisiana",-91.52086,30.519078,NA,LA,1856,seq-1,https://articleextractor.org/pages/13756/lu_pearse_ver01/sn82015753/1856/01/11/ed-1/seq-1/1,Tuoloume county,CA,sn82015753,-119.9740534,38.029655,1700,N,1850,Louisiana,South,Not_Border,54,13756
17385_0,The Athens post,"NA, NA",4/4/1856,"Athens, Tennessee",-84.59299,35.442851,Athens,TN,1856,seq-2,https://articleextractor.org/pages/17385/tu_nancy_ver01/sn84024443/1856/04/04/ed-1/seq-2/1,NA,NA,sn84024443,NA,NA,NA,N,1850,Tennessee,South,Not_Border,44,17385
13757_0,American Lancaster gazette,"Charleston, IL",2/28/1856,"Lancaster, Ohio",-82.59933,39.713675,Lancaster,OH,1856,seq-1,https://articleextractor.org/pages/13757/ohi_drake_ver01/sn85026105/1856/02/28/ed-1/seq-1/1,Charleston,IL,sn85026105,-88.1761521,39.4961458,298,N,1850,Ohio,Midwest,Not_Border,43,13757
17220_0,Wheeling daily intelligencer,"Waco, TX",5/1/1857,"Wheeling, West Virginia",-80.72092,40.063962,Wheeling,WV,1857,seq-2,https://articleextractor.org/pages/17220/wvu_austria_ver01/sn86092535/1857/05/01/ed-1/seq-2/1,Waco,TX,sn86092535,-97.1466695,31.549333,1091,N,1850,West Virginia,South,Border,843,17220
17395_0,American union,"Louisville, KY",1/3/1857,"Morgantown, West Virginia",-79.9559,39.629526,Morgantown,WV,1857,seq-2,https://articleextractor.org/pages/17395/wvu_lincoln_ver01/sn86092124/1857/01/03/ed-1/seq-2/1,Louisville,KY,sn86092124,-85.7584557,38.2526647,326,N,1850,West Virginia,South,Border,606,17395
17396_0,Anti-slavery bugle,"NA, NA",1/3/1857,"New-Lisbon, Ohio",-80.76813,40.772004,New-Lisbon,OH,1857,seq-2,https://articleextractor.org/pages/17396/ohi_ariel_ver02/sn83035487/1857/01/03/ed-1/seq-2/1,NA,NA,sn83035487,NA,NA,NA,N,1850,Ohio,Midwest,Not_Border,564,17396
17397_0,Semi-weekly standard,"Louiseville, KY",1/3/1857,"Raleigh, North Carolina",-78.63818,35.77959,Raleigh,NC,1857,seq-3,https://articleextractor.org/pages/17397/ncu_broad_ver01/sn83045450/1857/01/03/ed-1/seq-3/1,Louiseville,KY,sn83045450,-85.7584557,38.2526647,429,N,1850,North Carolina,South,Not_Border,498,17397
14791_0,New Orleans daily crescent,"Leavenworth City, KS",8/14/1857,", Louisiana",-91.52086,30.519078,NA,LA,1857,seq-1,https://articleextractor.org/pages/14791/lu_pearse_ver01/sn82015753/1857/08/14/ed-1/seq-1/1,Leavenworth City,KS,sn82015753,-94.9279371,39.3103522,638,N,1850,Louisiana,South,Not_Border,491,14791
17469_0,The western Democrat,"Montezuma, IA",8/11/1857,"Charlotte, North Carolina",-80.84313,35.227087,Charlotte,NC,1857,seq-2,https://articleextractor.org/pages/17469/ncu_lumber_ver01/sn84020712/1857/08/11/ed-1/seq-2/1,Montezuma,IA,sn84020712,-92.5274091,41.585834,770,N,1850,North Carolina,South,Not_Border,358,17469
14224_0,Holmes County Republican,"Cedar, IA",7/16/1857,"Millersburg, Ohio",-81.91792,40.554507,Millersburg,OH,1857,seq-2,https://articleextractor.org/pages/14224/ohi_edgar_ver01/sn84028820/1857/07/16/ed-1/seq-2/1,Cedar,IA,sn84028820,-92.525745,41.2122326,556,N,1850,Ohio,Midwest,Not_Border,343,14224
14790_0,Muscatine weekly journal,"NA, NA",9/26/1857,"Muscatine, Iowa",-91.04321,41.424473,Muscatine,IA,1857,seq-2,https://articleextractor.org/pages/14790/iahi_bellsprout_ver01/sn84027253/1857/09/26/ed-1/seq-2/1,NA,NA,sn84027253,NA,NA,NA,N,1850,Iowa,Midwest,Not_Border,223,14790
14787_0,Delaware weekly Republican,"NA, NA",6/18/1857,"Wilmington, Delaware",-75.54839,39.744655,Wilmington,DE,1857,seq-3,https://articleextractor.org/pages/14787/deu_kedavra_ver01/sn84020401/1857/06/18/ed-1/seq-3/1,NA,NA,sn84020401,NA,NA,NA,N,1850,Delaware,South,Border,175,14787
17515_0,Green-Mountain freeman,"Leavenworth, KS",8/13/1857,"Montpelier, Vermont",-72.57539,44.260059,Montpelier,VT,1857,seq-2,https://articleextractor.org/pages/17515/vtu_hildene_ver01/sn84023209/1857/08/13/ed-1/seq-2/1,Leavenworth,KS,sn84023209,-94.9279371,39.3103522,1198,N,1850,Vermont,Northeast,Not_Border,174,17515
17524_0,Shepherdstown register,"Geneva, WI",9/26/1857,"Shepherdstown, West Virginia",-77.80416,39.4301,Shepherdstown,WV,1857,seq-2,https://articleextractor.org/pages/17524/wvu_antares_ver02/sn84026824/1857/09/26/ed-1/seq-2/1,Geneva,WI,sn84026824,-88.4597673,42.6386048,598,N,1850,West Virginia,South,Border,170,17524
17524_1,Shepherdstown register,"Rockingham County, VA",9/26/1857,"Shepherdstown, West Virginia",-77.80416,39.4301,Shepherdstown,WV,1857,seq-2,https://articleextractor.org/pages/17524/wvu_antares_ver02/sn84026824/1857/09/26/ed-1/seq-2/1,Rockingham County,VA,sn84026824,-78.8835548,38.5825919,82,N,1850,West Virginia,South,Border,54,17524
17518_0,Richmond enquirer,"Rustburg, VA",8/21/1857,"Richmond, Virginia",-77.43605,37.540725,Richmond,VA,1857,seq-4,https://articleextractor.org/pages/17518/vi_chanel_ver01/sn84024735/1857/08/21/ed-1/seq-4/1,Rustburg,VA,sn84024735,-79.10085430000001,37.2768113,93,Y,1850,Virginia,South,Not_Border,155,17518
17518_1,Richmond enquirer,"Pine Bluff, AR",8/21/1857,"Richmond, Virginia",-77.43605,37.540725,Richmond,VA,1857,seq-4,https://articleextractor.org/pages/17518/vi_chanel_ver01/sn84024735/1857/08/21/ed-1/seq-4/1,Pine Bluff,AR,sn84024735,-92.0033977,34.224908,847,N,1850,Virginia,South,Not_Border,232,17518
17467_0,New-York dispatch,"No city., KS",8/9/1857,"New York , New York",-74.00597,40.712775,New York,NY,1857,seq-5,https://articleextractor.org/pages/17467/dlc_collins_ver01/sn83030364/1857/08/09/ed-1/seq-5/1,No city.,KS,sn83030364,-98.4842465,39.011902,1301,N,1850,New York,Northeast,Not_Border,144,17467
17467_1,New-York dispatch,"New Orleans, LA",8/9/1857,"New York , New York",-74.00597,40.712775,New York,NY,1857,seq-5,https://articleextractor.org/pages/17467/dlc_collins_ver01/sn83030364/1857/08/09/ed-1/seq-5/1,New Orleans,LA,sn83030364,-90.0715323,29.95106579999999,1170,N,1850,New York,Northeast,Not_Border,59,17467
17467,New-York dispatch,"Attempted lynching., NA",8/9/1857,"New York , New York",-74.00597,40.712775,New York,NY,1857,seq-5,https://articleextractor.org/pages/17467/dlc_collins_ver01/sn83030364/1857/08/09/ed-1/seq-5/1,Attempted lynching.,NA,sn83030364,NA,NA,NA,N,1850,New York,Northeast,Not_Border,NA,NA
17529_0,The daily dispatch,"East Boston, MA",10/22/1857,"Richmond , Virginia",-77.43605,37.540725,Richmond,VA,1857,seq-1,https://articleextractor.org/pages/17529/vi_manowar_ver01/sn84024738/1857/10/22/ed-1/seq-1/1,East Boston,MA,sn84024738,-71.0254241,42.3800079,477,N,1850,Virginia,South,Not_Border,136,17529
17465_0,Bellevue gazette,"Poweshiek County, IA",8/6/1857,"Bellevue City, Nebraska",-95.91772,41.151465,Bellevue City,NE,1857,seq-4,https://articleextractor.org/pages/17465/nbu_lee_ver01/sn85033100/1857/08/06/ed-1/seq-4/1,Poweshiek County,IA,sn85033100,-92.539603,41.6530119,179,N,1850,Nebraska,Midwest,Not_Border,121,17465
14788_0,Daily Iowa State Democrat,"Louisville, KY",5/18/1857,"Davenport, Iowa",-90.57764,41.523644,Davenport,IA,1857,seq-2,https://articleextractor.org/pages/14788/iahi_gastly_ver01/sn82014134/1857/05/18/ed-1/seq-2/1,Louisville,KY,sn82014134,-85.7584557,38.2526647,341,N,1850,Iowa,Midwest,Not_Border,103,14788
17526_0,The weekly Minnesotian,"Upper Mississippi, MS",10/3/1857,"Saint Paul, Minnesota",-93.08996,44.953703,Saint Paul,MN,1857,seq-5,https://articleextractor.org/pages/17526/mnhi_foxtrot_ver01/sn83016750/1857/10/03/ed-1/seq-5/1,Upper Mississippi,MS,sn83016750,-89.3985283,32.3546679,894,N,1850,Minnesota,Midwest,Not_Border,99,17526
17520_0,The daily dispatch,"Gull Lake, MN",8/25/1857,"Richmond , Virginia",-77.43605,37.540725,Richmond,VA,1857,seq-2,https://articleextractor.org/pages/17520/vi_manowar_ver01/sn84024738/1857/08/25/ed-1/seq-2/1,Gull Lake,MN,sn84024738,-94.3313789,46.45851,1062,N,1850,Virginia,South,Not_Border,94,17520
17398_0,Fremont journal,"NA, NA",1/2/1857,"Fremont, Ohio",-83.12186,41.35033,Fremont,OH,1857,seq-1,https://articleextractor.org/pages/17398/ohi_cobweb_ver04/sn85026050/1857/01/02/ed-1/seq-1/1,NA,NA,sn85026050,NA,NA,NA,N,1850,Ohio,Midwest,Not_Border,93,17398
14789_0,The north Iowa times,"Jackson County, IA",4/24/1857,"M'Gregor , Iowa",-91.18125,43.024681,M'Gregor,IA,1857,seq-2,https://articleextractor.org/pages/14789/iahi_charizard_ver01/sn84027237/1857/04/24/ed-1/seq-2/1,Jackson County,IA,sn84027237,-90.5257823,42.1560699,69,Y,1850,Iowa,Midwest,Not_Border,83,14789
